[{"name":"Accord","state":"NY","code":"acc newa","affiliation":"NEWA in New York","affiliation_url":"","latitude":41.8076,"longitude":-74.2488,"elevation":386,"start_year":2015,"is_icao":false},{"name":"Aetna/Fremont","state":"MI","code":"aet miwx","affiliation":"Michigan State University","affiliation_url":"","latitude":43.5544,"longitude":-85.9605,"elevation":935,"start_year":2019,"is_icao":false},{"name":"Afton","state":"MN","code":"mn_aft newa","affiliation":"Minnesota Apple Growers Association","affiliation_url":"","latitude":44.819,"longitude":-92.796,"elevation":881,"start_year":2015,"is_icao":false},{"name":"Afton (Veritas)","state":"VA","code":"va_afto nwon","affiliation":"Virginia Polytechnic Institute and State University","affiliation_url":"http://grapepathology.org","latitude":38.0148,"longitude":-78.8398,"elevation":856,"start_year":2021,"is_icao":false},{"name":"Akron/Canton","state":"OH","code":"kcak icao","affiliation":"National Weather Service","affiliation_url":"https://www.weather.gov/","latitude":40.9181,"longitude":-81.4436,"elevation":1241,"start_year":1996,"is_icao":true},{"name":"Albany","state":"NY","code":"kalb icao","affiliation":"National Weather Service","affiliation_url":"https://www.weather.gov/","latitude":42.7431,"longitude":-73.8092,"elevation":275,"start_year":1996,"is_icao":true},{"name":"Albion","state":"MI","code":"alb miwx","affiliation":"Michigan State University","affiliation_url":"","latitude":42.2619,"longitude":-84.7741,"elevation":289,"start_year":2015,"is_icao":false},{"name":"Albion","state":"NY","code":"alb newa","affiliation":"NEWA in New York","affiliation_url":"","latitude":43.28,"longitude":-78.1342,"elevation":460,"start_year":2001,"is_icao":false},{"name":"Alexandria","state":"MN","code":"mn_alx newa","affiliation":"Minnesota Apple Growers Association","affiliation_url":"","latitude":45.8728,"longitude":-95.4705,"elevation":1403,"start_year":2015,"is_icao":false},{"name":"Allegan","state":"MI","code":"alg miwx","affiliation":"Michigan State University","affiliation_url":"","latitude":42.4865,"longitude":-85.804,"elevation":212,"start_year":2015,"is_icao":false},{"name":"Allentown","state":"PA","code":"kabe icao","affiliation":"National Weather Service","affiliation_url":"https://www.weather.gov/","latitude":40.6508,"longitude":-75.4492,"elevation":390,"start_year":1996,"is_icao":true},{"name":"Alpena (AP)","state":"MI","code":"kapn icao","affiliation":"National Weather Service","affiliation_url":"https://www.weather.gov/","latitude":45.0717,"longitude":-83.5644,"elevation":692,"start_year":1996,"is_icao":true},{"name":"Alpine (Burgess Orchards)","state":"UT","code":"42.04 ucc","affiliation":"The Utah Climate Center at Utah State University","affiliation_url":"","latitude":40.463,"longitude":-111.76,"elevation":5140,"start_year":2012,"is_icao":false},{"name":"Alpine Twp/Comstock Park","state":"MI","code":"acp miwx","affiliation":"Michigan State University","affiliation_url":"","latitude":43.0733,"longitude":-85.7228,"elevation":922,"start_year":2019,"is_icao":false},{"name":"Altoona","state":"PA","code":"kaoo icao","affiliation":"National Weather Service","affiliation_url":"https://www.weather.gov/","latitude":40.2964,"longitude":-78.3203,"elevation":1480,"start_year":1996,"is_icao":true},{"name":"Amesbury","state":"MA","code":"mam newa","affiliation":"NEWA in Massachusetts","affiliation_url":"","latitude":42.8719,"longitude":-70.9253,"elevation":115,"start_year":2011,"is_icao":false},{"name":"Amherst (UM ALC)","state":"MA","code":"mum newa","affiliation":"NEWA in Massachusetts","affiliation_url":"","latitude":42.4015,"longitude":-72.5269,"elevation":200,"start_year":2016,"is_icao":false},{"name":"Amsterdam (Stony Brook Farm)","state":"NY","code":"ams newa","affiliation":"NEWA in New York","affiliation_url":"","latitude":42.8743,"longitude":-74.2494,"elevation":651,"start_year":2016,"is_icao":false},{"name":"Andover","state":"NJ","code":"k12n icao","affiliation":"National Weather Service","affiliation_url":"https://www.weather.gov/","latitude":41.0089,"longitude":-74.7367,"elevation":583,"start_year":1998,"is_icao":true},{"name":"Appleton (Russell Farms)","state":"NY","code":"app newa","affiliation":"","affiliation_url":"","latitude":43.311,"longitude":-78.6524,"elevation":343,"start_year":2021,"is_icao":false},{"name":"Appleton North","state":"NY","code":"noa newa","affiliation":"Bittner Singer Orchards","affiliation_url":"http://BittnerSingerOrchards.com","latitude":43.344,"longitude":-78.6657,"elevation":350,"start_year":2001,"is_icao":false},{"name":"Arkport (Mahany)","state":"NY","code":"arm newa","affiliation":"Gary Mahany Farms","affiliation_url":"","latitude":42.4288,"longitude":-77.6843,"elevation":300,"start_year":2010,"is_icao":false},{"name":"Arlene","state":"MI","code":"arl miwx","affiliation":"Michigan State University","affiliation_url":"","latitude":44.3966,"longitude":-85.2935,"elevation":402,"start_year":2015,"is_icao":false},{"name":"Arlington","state":"WI","code":"alt miwx","affiliation":"Enviroweather at Michigan State University and University of Wisconsin-Madison","affiliation_url":"http://cals.wisc.edu/","latitude":43.2964,"longitude":-89.3837,"elevation":1007,"start_year":2018,"is_icao":false},{"name":"Asheville","state":"NC","code":"kavl icao","affiliation":"National Weather Service","affiliation_url":"https://www.weather.gov/","latitude":35.4319,"longitude":-82.5375,"elevation":2117,"start_year":1996,"is_icao":true},{"name":"Ashfield","state":"MA","code":"mas newa","affiliation":"Clark Brothers Orchards LLC","affiliation_url":"https://www.clarkbrothersorchards.com/","latitude":42.5618,"longitude":-72.818,"elevation":1019,"start_year":2011,"is_icao":false},{"name":"Ashland","state":"WI","code":"kasx icao","affiliation":"National Weather Service","affiliation_url":"https://www.weather.gov/","latitude":46.5486,"longitude":-90.9189,"elevation":826,"start_year":1998,"is_icao":true},{"name":"Ashtabula","state":"OH","code":"khzy icao","affiliation":"National Weather Service","affiliation_url":"https://www.weather.gov/","latitude":41.7781,"longitude":-80.6958,"elevation":924,"start_year":1998,"is_icao":true},{"name":"Ashwood","state":"NY","code":"ash newa","affiliation":"NEWA in New York","affiliation_url":"","latitude":43.3385,"longitude":-78.3096,"elevation":330,"start_year":2009,"is_icao":false},{"name":"Atglen (Wolfs Hollow)","state":"PA","code":"DWHW deos","affiliation":"","affiliation_url":"","latitude":39.9233,"longitude":-75.9881,"elevation":663,"start_year":2011,"is_icao":false},{"name":"Atlantic City Airport","state":"NJ","code":"kacy icao","affiliation":"National Weather Service","affiliation_url":"https://www.weather.gov/","latitude":39.45,"longitude":-74.57,"elevation":118,"start_year":1996,"is_icao":true},{"name":"Augusta","state":"ME","code":"kaug icao","affiliation":"National Weather Service","affiliation_url":"https://www.weather.gov/","latitude":44.3156,"longitude":-69.7972,"elevation":351,"start_year":1996,"is_icao":true},{"name":"Augusta","state":"WV","code":"wv_aug newa","affiliation":"","affiliation_url":"","latitude":39.3309,"longitude":-78.5592,"elevation":363,"start_year":2021,"is_icao":false},{"name":"Augusta (Bush Field)","state":"GA","code":"kags icao","affiliation":"National Weather Service","affiliation_url":"https://www.weather.gov/","latitude":33.3644,"longitude":-81.9633,"elevation":132,"start_year":1996,"is_icao":true},{"name":"Aurora","state":"IL","code":"karr icao","affiliation":"National Weather Service","affiliation_url":"https://www.weather.gov/","latitude":41.77,"longitude":-88.4814,"elevation":710,"start_year":1996,"is_icao":true},{"name":"Avon","state":"OH","code":"avon oardc","affiliation":"The Ohio State University CFAES Weather System","affiliation_url":"https://www.oardc.ohio-state.edu/weather1/","latitude":41.4517,"longitude":-82.0356,"elevation":670,"start_year":2017,"is_icao":false},{"name":"Avon Lake","state":"OH","code":"oh_avo newa","affiliation":"NEWA in Ohio","affiliation_url":"https://cfaes.osu.edu/","latitude":41.4883,"longitude":-82.032,"elevation":623,"start_year":2018,"is_icao":false},{"name":"Baileys Harbor","state":"WI","code":"wi_bai newa","affiliation":"NEWA in Wisconsin","affiliation_url":"","latitude":45.0681,"longitude":-87.1238,"elevation":586,"start_year":2019,"is_icao":false},{"name":"Bainbridge","state":"PA","code":"pa_bai newa","affiliation":"Lake Erie Regional Grape Research and Extension Center, Penn State College of Agricultural Sciences","affiliation_url":"https://agsci.psu.edu/research/extension-centers/erie","latitude":40.089,"longitude":-76.646,"elevation":320,"start_year":2019,"is_icao":false},{"name":"Bainbridge/Watervliet","state":"MI","code":"bbc miwx","affiliation":"Michigan State University","affiliation_url":"","latitude":42.1267,"longitude":-86.2677,"elevation":224,"start_year":2015,"is_icao":false},{"name":"Baldwinsville","state":"NY","code":"bal newa","affiliation":"NEWA in New York","affiliation_url":"","latitude":43.1695,"longitude":-76.4009,"elevation":443,"start_year":2011,"is_icao":false},{"name":"Baldwinsville (Abbott)","state":"NY","code":"bla newa","affiliation":"NEWA in New York","affiliation_url":"","latitude":43.1451,"longitude":-76.2821,"elevation":502,"start_year":2014,"is_icao":false},{"name":"Baltimore","state":"MD","code":"kbwi icao","affiliation":"National Weather Service","affiliation_url":"https://www.weather.gov/","latitude":39.1667,"longitude":-76.6833,"elevation":156,"start_year":1996,"is_icao":true},{"name":"Bangor","state":"ME","code":"kbgr icao","affiliation":"National Weather Service","affiliation_url":"https://www.weather.gov/","latitude":44.7978,"longitude":-68.8185,"elevation":148,"start_year":1953,"is_icao":true},{"name":"Barnstable County Farm","state":"MA","code":"ma_barn nwon","affiliation":"Cape Cod Cooperative Extension","affiliation_url":"https://www.capecodextension.org/","latitude":41.6978,"longitude":-70.2887,"elevation":53,"start_year":2013,"is_icao":false},{"name":"Barrington","state":"RI","code":"ri_barr nwon","affiliation":"Onset Data Loggers","affiliation_url":"https://www.onsetcomp.com","latitude":41.7478,"longitude":-71.321,"elevation":26,"start_year":2019,"is_icao":false},{"name":"Basking Ridge","state":"NJ","code":"285 njwx","affiliation":"Rutgers New Jersey Weather Network","affiliation_url":"https://www.njweather.org/","latitude":40.6956,"longitude":-74.5198,"elevation":67,"start_year":2010,"is_icao":false},{"name":"Battle Creek (AP)","state":"MI","code":"kbtl icao","affiliation":"National Weather Service","affiliation_url":"https://www.weather.gov/","latitude":42.3075,"longitude":-85.2511,"elevation":956,"start_year":1996,"is_icao":true},{"name":"Bayfield","state":"WI","code":"wi_bayf nwon","affiliation":"NEWA in Wisconsin","affiliation_url":"","latitude":46.7666,"longitude":-90.8957,"elevation":984,"start_year":2019,"is_icao":false},{"name":"Bedford","state":"MA","code":"kbed icao","affiliation":"National Weather Service","affiliation_url":"https://www.weather.gov/","latitude":42.47,"longitude":-71.2894,"elevation":133,"start_year":1996,"is_icao":true},{"name":"Belchertown","state":"MA","code":"ma_belc nwon","affiliation":"UMass Extension","affiliation_url":"https://ag.umass.edu/","latitude":42.2532,"longitude":-72.3601,"elevation":635,"start_year":2008,"is_icao":false},{"name":"Belchertown (OrchardWatch-North)","state":"MA","code":"ma_bown nwon","affiliation":"UMass Extension","affiliation_url":"https://ag.umass.edu/","latitude":42.2571,"longitude":-72.359,"elevation":701,"start_year":2020,"is_icao":false},{"name":"Belchertown (OrchardWatch-South)","state":"MA","code":"ma_beow nwon","affiliation":"UMass Extension","affiliation_url":"https://ag.umass.edu/","latitude":42.254,"longitude":-72.361,"elevation":620,"start_year":2019,"is_icao":false},{"name":"Belchertown-2","state":"MA","code":"mbe newa","affiliation":"UMass Extension","affiliation_url":"https://ag.umass.edu/","latitude":42.2532,"longitude":-72.356,"elevation":623,"start_year":2010,"is_icao":false},{"name":"Belding","state":"MI","code":"bel miwx","affiliation":"Michigan State University","affiliation_url":"","latitude":43.1125,"longitude":-85.3122,"elevation":256,"start_year":2015,"is_icao":false},{"name":"Belgium","state":"WI","code":"wi_bel newa","affiliation":"Appleland LLC","affiliation_url":"http://www.applelandorchard.com","latitude":43.5087,"longitude":-87.8956,"elevation":771,"start_year":2020,"is_icao":false},{"name":"Belleville","state":"IL","code":"il_bel newa","affiliation":"Eckert's Orchards","affiliation_url":"","latitude":38.4804,"longitude":-89.939,"elevation":539,"start_year":2015,"is_icao":false},{"name":"Bennington (airport)","state":"VT","code":"kddh icao","affiliation":"National Weather Service","affiliation_url":"https://www.weather.gov/","latitude":42.8914,"longitude":-73.2469,"elevation":826,"start_year":1998,"is_icao":true},{"name":"Bennington (SVO)","state":"VT","code":"vbe newa","affiliation":"NEWA in Vermont","affiliation_url":"","latitude":42.8411,"longitude":-73.2181,"elevation":1312,"start_year":2016,"is_icao":false},{"name":"Benona/Shelby","state":"MI","code":"bna miwx","affiliation":"Michigan State University","affiliation_url":"","latitude":43.6304,"longitude":-86.4931,"elevation":256,"start_year":2016,"is_icao":false},{"name":"Benton Harbor (SWMREC)","state":"MI","code":"swm miwx","affiliation":"Michigan State University","affiliation_url":"","latitude":42.0841,"longitude":-86.357,"elevation":219,"start_year":2015,"is_icao":false},{"name":"Benzonia","state":"MI","code":"bnz miwx","affiliation":"Michigan State University","affiliation_url":"","latitude":44.5593,"longitude":-86.1172,"elevation":252,"start_year":2015,"is_icao":false},{"name":"Bergen","state":"NY","code":"ber newa","affiliation":"NEWA in New York","affiliation_url":"","latitude":43.0854,"longitude":-77.9486,"elevation":620,"start_year":2014,"is_icao":false},{"name":"Berkeley Twp","state":"NJ","code":"1032 njwx","affiliation":"Rutgers New Jersey Weather Network","affiliation_url":"https://www.njweather.org/","latitude":39.9258,"longitude":-74.2981,"elevation":24,"start_year":2010,"is_icao":false},{"name":"Berlin","state":"NH","code":"kbml icao","affiliation":"National Weather Service","affiliation_url":"https://www.weather.gov/","latitude":44.5761,"longitude":-71.1786,"elevation":1158,"start_year":1996,"is_icao":true},{"name":"Berlin Heights","state":"OH","code":"oh_ber newa","affiliation":"NEWA in Ohio","affiliation_url":"","latitude":41.3363,"longitude":-82.4725,"elevation":793,"start_year":2017,"is_icao":false},{"name":"Berrien Springs","state":"MI","code":"brs miwx","affiliation":"Michigan State University","affiliation_url":"","latitude":41.9352,"longitude":-86.3797,"elevation":228,"start_year":2015,"is_icao":false},{"name":"Bethany Beach (Boardwalk)","state":"DE","code":"DBBB deos","affiliation":"","affiliation_url":"","latitude":38.5389,"longitude":-75.0542,"elevation":11,"start_year":2004,"is_icao":false},{"name":"Bethany Beach (NGTS)","state":"DE","code":"DBNG deos","affiliation":"","affiliation_url":"","latitude":38.5464,"longitude":-75.0627,"elevation":8,"start_year":2004,"is_icao":false},{"name":"Bethel Mill Park","state":"NJ","code":"202 njwx","affiliation":"Rutgers New Jersey Weather Network","affiliation_url":"https://www.njweather.org/","latitude":39.7485,"longitude":-75.1138,"elevation":30,"start_year":2011,"is_icao":false},{"name":"Beverly","state":"MA","code":"kbvy icao","affiliation":"National Weather Service","affiliation_url":"https://www.weather.gov/","latitude":42.5842,"longitude":-70.9175,"elevation":108,"start_year":1996,"is_icao":true},{"name":"Biglerville (Hollabaugh)","state":"PA","code":"pa_big newa","affiliation":"State Horticultural Association of Pennsylvania","affiliation_url":"","latitude":39.9469,"longitude":-77.2472,"elevation":732,"start_year":2013,"is_icao":false},{"name":"Biglerville (PSU FREC)","state":"PA","code":"pa_bigl nwon","affiliation":"State Horticultural Association of Pennsylvania","affiliation_url":"","latitude":39.9347,"longitude":-77.2536,"elevation":741,"start_year":2020,"is_icao":false},{"name":"Binghamton","state":"NY","code":"kbgm icao","affiliation":"National Weather Service","affiliation_url":"https://www.weather.gov/","latitude":42.2067,"longitude":-75.98,"elevation":1595,"start_year":1996,"is_icao":true},{"name":"Blackbird (NERR)","state":"DE","code":"DBKB deos","affiliation":"","affiliation_url":"","latitude":39.3953,"longitude":-75.6317,"elevation":55,"start_year":2004,"is_icao":false},{"name":"Blairsville","state":"GA","code":"ga_blai nwon","affiliation":"University of Georgia- Georgia Mountain REC","affiliation_url":"","latitude":34.8391,"longitude":-83.9262,"elevation":1918,"start_year":2021,"is_icao":false},{"name":"Blue Anchor (Sharrott Winery)","state":"NJ","code":"nj_blu newa","affiliation":"NEWA in New Jersey","affiliation_url":"","latitude":39.677,"longitude":-74.874,"elevation":131,"start_year":2015,"is_icao":false},{"name":"Bolton","state":"MA","code":"mbo newa","affiliation":"NEWA in Massachusetts","affiliation_url":"","latitude":42.4189,"longitude":-71.6414,"elevation":516,"start_year":2011,"is_icao":false},{"name":"Boscawen","state":"NH","code":"nh_bos newa","affiliation":"University of New Hampshire Cooperative Extension","affiliation_url":"https://extension.unh.edu/","latitude":43.3699,"longitude":-71.6529,"elevation":282,"start_year":2016,"is_icao":false},{"name":"Boscobel","state":"WI","code":"kovs icao","affiliation":"National Weather Service","affiliation_url":"https://www.weather.gov/","latitude":43.1609,"longitude":-90.6737,"elevation":672,"start_year":1999,"is_icao":true},{"name":"Boston (Weld Hill)","state":"MA","code":"ma_weld nwon","affiliation":"NEWA in Massachusetts","affiliation_url":"","latitude":42.2953,"longitude":-71.1337,"elevation":177,"start_year":2020,"is_icao":false},{"name":"Boston Logan","state":"MA","code":"kbos icao","affiliation":"National Weather Service","affiliation_url":"https://www.weather.gov/","latitude":42.3606,"longitude":-71.0106,"elevation":20,"start_year":1996,"is_icao":true},{"name":"Bradford","state":"PA","code":"kbfd icao","affiliation":"National Weather Service","affiliation_url":"https://www.weather.gov/","latitude":41.8031,"longitude":-78.6403,"elevation":2117,"start_year":1996,"is_icao":true},{"name":"Branchport","state":"NY","code":"bra newa","affiliation":"NEWA in New York","affiliation_url":"","latitude":42.5842,"longitude":-77.1678,"elevation":1043,"start_year":1996,"is_icao":false},{"name":"Brant","state":"NY","code":"ny_bran nwon","affiliation":"Lake Erie Regional Grape Program","affiliation_url":"https://lergp.cce.cornell.edu/","latitude":42.5775,"longitude":-78.9897,"elevation":794,"start_year":2021,"is_icao":false},{"name":"Brentwood","state":"NH","code":"nh_bre newa","affiliation":"University of New Hampshire Cooperative Extension","affiliation_url":"https://extension.unh.edu/","latitude":43.0088,"longitude":-71.0502,"elevation":121,"start_year":2017,"is_icao":false},{"name":"Bridgeport","state":"CT","code":"kbdr icao","affiliation":"National Weather Service","affiliation_url":"https://www.weather.gov/","latitude":41.1583,"longitude":-73.1289,"elevation":5,"start_year":1996,"is_icao":true},{"name":"Bridgeville (SPS)","state":"DE","code":"DBRG deos","affiliation":"","affiliation_url":"","latitude":38.7206,"longitude":-75.5886,"elevation":36,"start_year":2006,"is_icao":false},{"name":"Bridgewater","state":"CT","code":"ct_bri newa","affiliation":"NEWA in Connecticut","affiliation_url":"","latitude":41.4914,"longitude":-73.3419,"elevation":640,"start_year":2019,"is_icao":false},{"name":"Brighton","state":"WI","code":"wi_bri newa","affiliation":"Brightonwoods Orchard","affiliation_url":"http://www.brightonwoodsorchard.com","latitude":42.6424,"longitude":-88.1601,"elevation":729,"start_year":2020,"is_icao":false},{"name":"Bristol (Nicewonder)","state":"VA","code":"va_bris nwon","affiliation":"Virginia Polytechnic Institute and State University","affiliation_url":"http://grapepathology.org","latitude":36.631,"longitude":-82.101,"elevation":1920,"start_year":2021,"is_icao":false},{"name":"Brocton (Escarpment)","state":"NY","code":"bro newa","affiliation":"Lake Erie Regional Grape Program","affiliation_url":"https://lergp.cce.cornell.edu/","latitude":42.379,"longitude":-79.4241,"elevation":899,"start_year":2018,"is_icao":false},{"name":"Brookhaven","state":"NY","code":"khwv icao","affiliation":"National Weather Service","affiliation_url":"https://www.weather.gov/","latitude":40.8217,"longitude":-72.8689,"elevation":82,"start_year":1999,"is_icao":true},{"name":"Brooklyn","state":"WI","code":"wi_brk newa","affiliation":"Alpine Ridge Orchard","affiliation_url":"http://www.alpineridgeorchard.com","latitude":42.8588,"longitude":-89.4354,"elevation":1057,"start_year":2020,"is_icao":false},{"name":"Bryce Canyon AP","state":"UT","code":"kbce icao","affiliation":"National Weather Service","affiliation_url":"https://www.weather.gov/","latitude":37.7064,"longitude":-112.1456,"elevation":7586,"start_year":1996,"is_icao":true},{"name":"Buffalo","state":"MN","code":"mn_buf newa","affiliation":"Minnesota Apple Growers Association","affiliation_url":"","latitude":45.22,"longitude":-93.84,"elevation":1015,"start_year":2015,"is_icao":false},{"name":"Buffalo","state":"NY","code":"kbuf icao","affiliation":"National Weather Service","affiliation_url":"https://www.weather.gov/","latitude":42.9408,"longitude":-78.7358,"elevation":705,"start_year":1996,"is_icao":true},{"name":"Burlington","state":"NC","code":"kbuy icao","affiliation":"National Weather Service","affiliation_url":"https://www.weather.gov/","latitude":36.0467,"longitude":-79.4769,"elevation":617,"start_year":1998,"is_icao":true},{"name":"Burlington","state":"VT","code":"kbtv icao","affiliation":"National Weather Service","affiliation_url":"https://www.weather.gov/","latitude":44.4681,"longitude":-73.1503,"elevation":330,"start_year":1996,"is_icao":true},{"name":"Burlington (Munster)","state":"WI","code":"wi_bur newa","affiliation":"NEWA in Wisconsin","affiliation_url":"","latitude":42.5759,"longitude":-88.2508,"elevation":820,"start_year":2018,"is_icao":false},{"name":"Burt","state":"NY","code":"burt nysm","affiliation":"NYS Mesonet at UAlbany","affiliation_url":"http://www.nysmesonet.org","latitude":43.317,"longitude":-78.749,"elevation":96,"start_year":2016,"is_icao":false},{"name":"Butler (Tree Crisp)","state":"NY","code":"but newa","affiliation":"NEWA in New York","affiliation_url":"","latitude":43.1451,"longitude":-76.7602,"elevation":457,"start_year":2013,"is_icao":false},{"name":"Cabot (Mathias Farm)","state":"PA","code":"pa_cab newa","affiliation":"State Horticultural Association of Pennsylvania","affiliation_url":"","latitude":40.7792,"longitude":-79.7334,"elevation":1330,"start_year":2016,"is_icao":false},{"name":"Caldwell (Eastern ARS)","state":"OH","code":"east oardc","affiliation":"The Ohio State University CFAES Weather System","affiliation_url":"https://www.oardc.ohio-state.edu/weather1/","latitude":39.7478,"longitude":-81.5167,"elevation":744,"start_year":2009,"is_icao":false},{"name":"Campbell Hall (Crist)","state":"NY","code":"cah newa","affiliation":"NEWA in New York","affiliation_url":"","latitude":41.4267,"longitude":-74.2394,"elevation":520,"start_year":2017,"is_icao":false},{"name":"Canton","state":"MO","code":"mo_can newa","affiliation":"Blue Heron Orchard","affiliation_url":"http://www.blueheronorchard.com","latitude":40.0766,"longitude":-91.5201,"elevation":611,"start_year":2020,"is_icao":false},{"name":"Canton (Greenwood)","state":"NY","code":"cng newa","affiliation":"NEWA in New York","affiliation_url":"","latitude":44.6718,"longitude":-75.1484,"elevation":354,"start_year":2016,"is_icao":false},{"name":"Cape May Courthouse","state":"NJ","code":"148 njwx","affiliation":"Rutgers New Jersey Weather Network","affiliation_url":"https://www.njweather.org/","latitude":39.1246,"longitude":-74.7873,"elevation":7,"start_year":2011,"is_icao":false},{"name":"Carlyle","state":"IL","code":"il_car newa","affiliation":"Illinois Grape Growers and Vintners Alliance","affiliation_url":"https://illinoiswine.com/","latitude":38.5711,"longitude":-89.3515,"elevation":440,"start_year":2021,"is_icao":false},{"name":"Carrollton","state":"OH","code":"oh_carr nwon","affiliation":"","affiliation_url":"","latitude":40.5201,"longitude":-81.1325,"elevation":1120,"start_year":2020,"is_icao":false},{"name":"Casco/Luxemburg","state":"WI","code":"lux miwx","affiliation":"Enviroweather at Michigan State University and University of Wisconsin-Madison","affiliation_url":"http://cals.wisc.edu/","latitude":44.5554,"longitude":-87.6549,"elevation":715,"start_year":2015,"is_icao":false},{"name":"Cassopolis","state":"MI","code":"cas miwx","affiliation":"Michigan State University","affiliation_url":"","latitude":41.953,"longitude":-85.9902,"elevation":289,"start_year":2015,"is_icao":false},{"name":"Cedar City AP","state":"UT","code":"kcdc icao","affiliation":"National Weather Service","affiliation_url":"https://www.weather.gov/","latitude":37.7086,"longitude":-113.0944,"elevation":5586,"start_year":1996,"is_icao":true},{"name":"Cedar Rapids","state":"IA","code":"kcid icao","affiliation":"National Weather Service","affiliation_url":"https://www.weather.gov/","latitude":41.8833,"longitude":-91.7167,"elevation":868,"start_year":1996,"is_icao":true},{"name":"Central City","state":"IA","code":"ia_ccy newa","affiliation":"NEWA in Iowa","affiliation_url":"","latitude":42.2242,"longitude":-91.4946,"elevation":958,"start_year":2015,"is_icao":false},{"name":"Ceres","state":"NY","code":"cer newa","affiliation":"NEWA in New York","affiliation_url":"","latitude":42.0074,"longitude":-78.299,"elevation":1500,"start_year":2011,"is_icao":false},{"name":"Ceresco","state":"MI","code":"cer miwx","affiliation":"Michigan State University","affiliation_url":"","latitude":42.22,"longitude":-85.1526,"elevation":289,"start_year":2015,"is_icao":false},{"name":"Champaign","state":"IL","code":"il_cha newa","affiliation":"NEWA in Illinois","affiliation_url":"","latitude":40.0639,"longitude":-88.2923,"elevation":738,"start_year":2017,"is_icao":false},{"name":"Champaign Airport","state":"IL","code":"kcmi icao","affiliation":"National Weather Service","affiliation_url":"https://www.weather.gov/","latitude":40.0397,"longitude":-88.2778,"elevation":754,"start_year":1996,"is_icao":true},{"name":"Chapel Hill","state":"NC","code":"kigx icao","affiliation":"National Weather Service","affiliation_url":"https://www.weather.gov/","latitude":35.9333,"longitude":-79.0642,"elevation":512,"start_year":1999,"is_icao":true},{"name":"Chardon","state":"OH","code":"oh_char nwon","affiliation":"NEWA in Ohio","affiliation_url":"","latitude":41.58,"longitude":-81.2316,"elevation":1265,"start_year":2019,"is_icao":false},{"name":"Charles City (Upper Shirley)","state":"VA","code":"va_chac nwon","affiliation":"Virginia Polytechnic Institute and State University","affiliation_url":"http://grapepathology.org","latitude":37.3457,"longitude":-77.2562,"elevation":70,"start_year":2021,"is_icao":false},{"name":"Charlotte","state":"MI","code":"clt miwx","affiliation":"Michigan State University","affiliation_url":"","latitude":42.6509,"longitude":-84.916,"elevation":284,"start_year":2015,"is_icao":false},{"name":"Charlotte","state":"NC","code":"kclt icao","affiliation":"National Weather Service","affiliation_url":"https://www.weather.gov/","latitude":35.2236,"longitude":-80.9553,"elevation":728,"start_year":1996,"is_icao":true},{"name":"Charlotteburg","state":"NJ","code":"471 njwx","affiliation":"Rutgers New Jersey Weather Network","affiliation_url":"https://www.njweather.org/","latitude":41.0299,"longitude":-74.4247,"elevation":232,"start_year":2011,"is_icao":false},{"name":"Charlottesville (Arpt)","state":"VA","code":"kcho icao","affiliation":"National Weather Service","affiliation_url":"https://www.weather.gov/","latitude":38.1386,"longitude":-78.4531,"elevation":641,"start_year":1996,"is_icao":true},{"name":"Chaska (Univ MN HRC)","state":"MN","code":"mn_cha newa","affiliation":"Minnesota Apple Growers Association","affiliation_url":"","latitude":44.8625,"longitude":-93.6347,"elevation":1029,"start_year":2015,"is_icao":false},{"name":"Chatham","state":"MA","code":"kcqx icao","affiliation":"National Weather Service","affiliation_url":"https://www.weather.gov/","latitude":41.6875,"longitude":-69.9933,"elevation":68,"start_year":1996,"is_icao":true},{"name":"Chatham","state":"MI","code":"cth miwx","affiliation":"Michigan State University","affiliation_url":"","latitude":46.3405,"longitude":-86.9273,"elevation":270,"start_year":2015,"is_icao":false},{"name":"Chazy (Grower)","state":"NY","code":"chz newa","affiliation":"NEWA in New York","affiliation_url":"","latitude":44.879,"longitude":-73.4294,"elevation":167,"start_year":2004,"is_icao":false},{"name":"Chazy (Miner)","state":"NY","code":"czy newa","affiliation":"Cornell University Agricultural Experiment Station","affiliation_url":"https://cuaes.cals.cornell.edu/","latitude":44.886,"longitude":-73.4705,"elevation":201,"start_year":1992,"is_icao":false},{"name":"Chazy (Rusty Creek)","state":"NY","code":"crc newa","affiliation":"NEWA in New York","affiliation_url":"","latitude":44.9356,"longitude":-73.4189,"elevation":140,"start_year":2016,"is_icao":false},{"name":"Cherry Hill III","state":"NJ","code":"236 njwx","affiliation":"Rutgers New Jersey Weather Network","affiliation_url":"https://www.njweather.org/","latitude":39.9098,"longitude":-75.0257,"elevation":7,"start_year":2011,"is_icao":false},{"name":"Chester Springs (Park)","state":"PA","code":"DWPK deos","affiliation":"","affiliation_url":"","latitude":40.0858,"longitude":-75.6158,"elevation":354,"start_year":2011,"is_icao":false},{"name":"Chesterland","state":"OH","code":"oh_che newa","affiliation":"NEWA in Ohio","affiliation_url":"","latitude":41.5546,"longitude":-81.3278,"elevation":1150,"start_year":2018,"is_icao":false},{"name":"Chicopee Falls","state":"MA","code":"kcef icao","affiliation":"National Weather Service","affiliation_url":"https://www.weather.gov/","latitude":42.2,"longitude":-72.5333,"elevation":246,"start_year":1998,"is_icao":true},{"name":"Chippewa Falls","state":"WI","code":"wi_chi newa","affiliation":"Fergusonâ€™s Orchards ","affiliation_url":"","latitude":44.8696,"longitude":-91.2808,"elevation":1096,"start_year":2020,"is_icao":false},{"name":"Cincinnati","state":"OH","code":"kcvg icao","affiliation":"National Weather Service","affiliation_url":"https://www.weather.gov/","latitude":39.0444,"longitude":-84.6725,"elevation":888,"start_year":1996,"is_icao":true},{"name":"Clarksville","state":"MI","code":"clr miwx","affiliation":"Michigan State University","affiliation_url":"","latitude":42.8733,"longitude":-85.2604,"elevation":272,"start_year":2015,"is_icao":false},{"name":"Claverack (Klocke)","state":"NY","code":"ny_clav nwon","affiliation":"Klocke Estate","affiliation_url":"https://www.klocke-estate.com/","latitude":42.2049,"longitude":-73.7197,"elevation":438,"start_year":2020,"is_icao":false},{"name":"Claymont (Park)","state":"DE","code":"DCLY deos","affiliation":"","affiliation_url":"","latitude":39.8092,"longitude":-75.4556,"elevation":102,"start_year":2010,"is_icao":false},{"name":"Cleveland","state":"OH","code":"kcle icao","affiliation":"National Weather Service","affiliation_url":"https://www.weather.gov/","latitude":41.4058,"longitude":-81.8519,"elevation":779,"start_year":1996,"is_icao":true},{"name":"Clifton Park","state":"NY","code":"cli newa","affiliation":"NEWA in New York","affiliation_url":"","latitude":42.8213,"longitude":-73.8398,"elevation":378,"start_year":2020,"is_icao":false},{"name":"Clintondale (Crist)","state":"NY","code":"clc newa","affiliation":"NEWA in New York","affiliation_url":"","latitude":41.674,"longitude":-74.059,"elevation":700,"start_year":2018,"is_icao":false},{"name":"Cobleskill","state":"NY","code":"cobl nysm","affiliation":"NYS Mesonet at UAlbany","affiliation_url":"http://www.nysmesonet.org","latitude":42.6763,"longitude":-74.508,"elevation":328,"start_year":2016,"is_icao":false},{"name":"Coeymans Hollow (Stanton)","state":"NY","code":"cho newa","affiliation":"NEWA in New York","affiliation_url":"","latitude":42.505,"longitude":-73.8982,"elevation":720,"start_year":2016,"is_icao":false},{"name":"Coldwater","state":"MI","code":"cld miwx","affiliation":"Michigan State University","affiliation_url":"","latitude":41.9348,"longitude":-85.1082,"elevation":293,"start_year":2015,"is_icao":false},{"name":"Colgate","state":"WI","code":"wi_col newa","affiliation":"NEWA in Wisconsin","affiliation_url":"","latitude":43.1956,"longitude":-88.3074,"elevation":1076,"start_year":2018,"is_icao":false},{"name":"Columbia","state":"NH","code":"nh_col newa","affiliation":"University of New Hampshire Cooperative Extension","affiliation_url":"https://extension.unh.edu/","latitude":44.8571,"longitude":-71.4414,"elevation":1700,"start_year":2017,"is_icao":false},{"name":"Columbus","state":"NJ","code":"3532 njwx","affiliation":"Rutgers New Jersey Weather Network","affiliation_url":"https://www.njweather.org/","latitude":40.0334,"longitude":-74.7325,"elevation":47,"start_year":2016,"is_icao":false},{"name":"Columbus (AP)","state":"OH","code":"kcmh icao","affiliation":"National Weather Service","affiliation_url":"https://www.weather.gov/","latitude":39.9908,"longitude":-82.8769,"elevation":813,"start_year":1996,"is_icao":true},{"name":"Commerce Twp","state":"MI","code":"cmc miwx","affiliation":"Michigan State University","affiliation_url":"","latitude":42.5982,"longitude":-83.4964,"elevation":295,"start_year":2015,"is_icao":false},{"name":"Concord","state":"NH","code":"kcon icao","affiliation":"National Weather Service","affiliation_url":"https://www.weather.gov/","latitude":43.1953,"longitude":-71.5011,"elevation":346,"start_year":1996,"is_icao":true},{"name":"Concord (Apple Hill)","state":"NH","code":"nh_cah newa","affiliation":"UNH Extension","affiliation_url":"","latitude":43.2976,"longitude":-71.5584,"elevation":510,"start_year":2021,"is_icao":false},{"name":"Concord (Carter Hill Orchard)","state":"NH","code":"nh_cho newa","affiliation":"Carter Hill Orchard","affiliation_url":"","latitude":43.2349,"longitude":-71.6106,"elevation":218,"start_year":2021,"is_icao":false},{"name":"Conesus Lake (North)","state":"NY","code":"ny_lake nwon","affiliation":"Conesus Lake Association","affiliation_url":"http://conesuslake.org","latitude":42.8343,"longitude":-77.7042,"elevation":817,"start_year":2019,"is_icao":false},{"name":"Conesus Lake (South)","state":"NY","code":"ny_cone nwon","affiliation":"Conesus Lake Association","affiliation_url":"http://conesuslake.org","latitude":42.7221,"longitude":-77.7151,"elevation":817,"start_year":2019,"is_icao":false},{"name":"Conklin/Wright","state":"MI","code":"cnk miwx","affiliation":"Michigan State University","affiliation_url":"","latitude":43.1187,"longitude":-85.8284,"elevation":820,"start_year":2019,"is_icao":false},{"name":"Constantine","state":"MI","code":"cnt miwx","affiliation":"Michigan State University","affiliation_url":"","latitude":41.8277,"longitude":-85.6616,"elevation":254,"start_year":2015,"is_icao":false},{"name":"Contoocook","state":"NH","code":"nh_con newa","affiliation":"NEWA in New Hampshire","affiliation_url":"","latitude":43.2214,"longitude":-71.6898,"elevation":765,"start_year":2019,"is_icao":false},{"name":"Cornwall","state":"VT","code":"vco newa","affiliation":"NEWA in Vermont","affiliation_url":"","latitude":43.962,"longitude":-73.2394,"elevation":398,"start_year":2014,"is_icao":false},{"name":"Corwin","state":"NY","code":"cor newa","affiliation":"NEWA in New York","affiliation_url":"","latitude":43.2588,"longitude":-78.6927,"elevation":344,"start_year":2017,"is_icao":false},{"name":"Cream Ridge","state":"NJ","code":"295 njwx","affiliation":"Rutgers New Jersey Weather Network","affiliation_url":"https://www.njweather.org/","latitude":40.1185,"longitude":-74.5256,"elevation":36,"start_year":2010,"is_icao":false},{"name":"Crozet (Chiles Peach Orchard)","state":"VA","code":"va_cro newa","affiliation":"NEWA in Virginia","affiliation_url":"","latitude":38.068,"longitude":-78.7487,"elevation":922,"start_year":2016,"is_icao":false},{"name":"Custar (Northwest ARS)","state":"OH","code":"nwst oardc","affiliation":"The Ohio State University CFAES Weather System","affiliation_url":"https://www.oardc.ohio-state.edu/weather1/","latitude":41.2847,"longitude":-83.8444,"elevation":693,"start_year":2009,"is_icao":false},{"name":"Cutchogue (New Suffolk)","state":"NY","code":"cns newa","affiliation":"NEWA in New York","affiliation_url":"","latitude":41.01,"longitude":-72.48,"elevation":26,"start_year":2013,"is_icao":false},{"name":"Dakota","state":"MN","code":"mn_dak newa","affiliation":"Minnesota Apple Growers Association","affiliation_url":"","latitude":43.9075,"longitude":-91.3724,"elevation":791,"start_year":2019,"is_icao":false},{"name":"Danbury","state":"CT","code":"kdxr icao","affiliation":"National Weather Service","affiliation_url":"https://www.weather.gov/","latitude":41.3714,"longitude":-73.4828,"elevation":457,"start_year":1996,"is_icao":true},{"name":"Dansville","state":"NY","code":"kdsv icao","affiliation":"National Weather Service","affiliation_url":"https://www.weather.gov/","latitude":42.5675,"longitude":-77.7142,"elevation":649,"start_year":2000,"is_icao":true},{"name":"Danville","state":"VA","code":"kdan icao","affiliation":"National Weather Service","affiliation_url":"https://www.weather.gov/","latitude":36.5728,"longitude":-79.3361,"elevation":571,"start_year":1996,"is_icao":true},{"name":"Dayton","state":"OH","code":"kday icao","affiliation":"National Weather Service","affiliation_url":"https://www.weather.gov/","latitude":39.9064,"longitude":-84.2186,"elevation":1005,"start_year":1996,"is_icao":true},{"name":"Dearing","state":"GA","code":"ga_dear nwon","affiliation":"NEWA in Georgia","affiliation_url":"","latitude":33.3604,"longitude":-82.3714,"elevation":308,"start_year":2020,"is_icao":false},{"name":"Deerfield","state":"MA","code":"ma_deer nwon","affiliation":"NEWA in Massachusetts","affiliation_url":"","latitude":42.5633,"longitude":-72.6235,"elevation":329,"start_year":2009,"is_icao":false},{"name":"Deerfield/Blissfield","state":"MI","code":"drf miwx","affiliation":"Michigan State University","affiliation_url":"","latitude":41.8626,"longitude":-83.7979,"elevation":207,"start_year":2015,"is_icao":false},{"name":"Defiance","state":"OH","code":"kdfi icao","affiliation":"National Weather Service","affiliation_url":"https://www.weather.gov/","latitude":41.3375,"longitude":-84.4289,"elevation":707,"start_year":1998,"is_icao":true},{"name":"Delano (Apple Jack)","state":"MN","code":"mn_del newa","affiliation":"Minnesota Apple Growers Association","affiliation_url":"","latitude":45.0997,"longitude":-93.7902,"elevation":925,"start_year":2015,"is_icao":false},{"name":"Delmar (Gumboro)","state":"DE","code":"DGUM deos","affiliation":"","affiliation_url":"","latitude":38.465,"longitude":-75.4506,"elevation":59,"start_year":2009,"is_icao":false},{"name":"Dennis Twp","state":"NJ","code":"33 njwx","affiliation":"Rutgers New Jersey Weather Network","affiliation_url":"https://www.njweather.org/","latitude":39.2039,"longitude":-74.8923,"elevation":5,"start_year":2011,"is_icao":false},{"name":"Detroit (AP)","state":"MI","code":"kdtw icao","affiliation":"National Weather Service","affiliation_url":"https://www.weather.gov/","latitude":42.2314,"longitude":-83.3308,"elevation":631,"start_year":1996,"is_icao":true},{"name":"Devault (Tredyffrin)","state":"PA","code":"DTDF deos","affiliation":"","affiliation_url":"","latitude":40.0711,"longitude":-75.5208,"elevation":249,"start_year":2011,"is_icao":false},{"name":"Dobson","state":"NC","code":"nc_dob newa","affiliation":"Surry Community College","affiliation_url":"","latitude":36.38,"longitude":-80.72,"elevation":1187,"start_year":2020,"is_icao":false},{"name":"Dover (DSFS)","state":"DE","code":"DDFS deos","affiliation":"","affiliation_url":"","latitude":39.1697,"longitude":-75.593,"elevation":51,"start_year":2005,"is_icao":false},{"name":"Dowagiac","state":"MI","code":"dow miwx","affiliation":"Michigan State University","affiliation_url":"","latitude":42.0249,"longitude":-86.171,"elevation":241,"start_year":2015,"is_icao":false},{"name":"Dracut","state":"MA","code":"mdr newa","affiliation":"NEWA in Massachusetts","affiliation_url":"","latitude":42.6806,"longitude":-70.7353,"elevation":151,"start_year":2011,"is_icao":false},{"name":"Dresden (FLX TDV2)","state":"NY","code":"ny_dres nwon","affiliation":"New York State IPM Program","affiliation_url":"https://nysipm.cornell.edu","latitude":42.706,"longitude":-76.975,"elevation":643,"start_year":2021,"is_icao":false},{"name":"DuBois","state":"PA","code":"kduj icao","affiliation":"National Weather Service","affiliation_url":"https://www.weather.gov/","latitude":41.1783,"longitude":-78.8989,"elevation":1814,"start_year":1996,"is_icao":true},{"name":"Dulles Airport","state":"VA","code":"kiad icao","affiliation":"National Weather Service","affiliation_url":"https://www.weather.gov/","latitude":38.9408,"longitude":-77.4636,"elevation":290,"start_year":1996,"is_icao":true},{"name":"Duluth","state":"MN","code":"kdlh icao","affiliation":"National Weather Service","affiliation_url":"https://www.weather.gov/","latitude":46.8369,"longitude":-92.1833,"elevation":1433,"start_year":1996,"is_icao":true},{"name":"Dummerston","state":"VT","code":"vdu newa","affiliation":"NEWA in Vermont","affiliation_url":"","latitude":42.9042,"longitude":-72.5692,"elevation":561,"start_year":2013,"is_icao":false},{"name":"Dundee (Wiemer)","state":"NY","code":"dun newa","affiliation":"NEWA in New York","affiliation_url":"","latitude":42.5707,"longitude":-76.9286,"elevation":702,"start_year":2013,"is_icao":false},{"name":"Dunkirk","state":"NY","code":"kdkk icao","affiliation":"National Weather Service","affiliation_url":"https://www.weather.gov/","latitude":42.4933,"longitude":-79.2722,"elevation":666,"start_year":1996,"is_icao":true},{"name":"Durham","state":"NH","code":"nh_dur newa","affiliation":"University of New Hampshire Cooperative Extension","affiliation_url":"https://extension.unh.edu/","latitude":43.1506,"longitude":-70.9426,"elevation":151,"start_year":2016,"is_icao":false},{"name":"Eagle Bridge","state":"NY","code":"eag newa","affiliation":"NEWA in New York","affiliation_url":"","latitude":42.9649,"longitude":-73.3396,"elevation":687,"start_year":2016,"is_icao":false},{"name":"East Bridgewater (CN Smith Farm)","state":"MA","code":"ma_ebri nwon","affiliation":"UMass Extension","affiliation_url":"https://ag.umass.edu/","latitude":42.0078,"longitude":-70.9433,"elevation":40,"start_year":2011,"is_icao":false},{"name":"East Dorset","state":"VT","code":"ved newa","affiliation":"University of Vermont","affiliation_url":"https://www.uvm.edu","latitude":43.2685,"longitude":-72.9909,"elevation":1339,"start_year":2010,"is_icao":false},{"name":"East Falmouth","state":"MA","code":"ma_efal nwon","affiliation":"Onset Data Loggers","affiliation_url":"https://www.onsetcomp.com","latitude":41.6168,"longitude":-70.5761,"elevation":69,"start_year":2020,"is_icao":false},{"name":"East Fredonia","state":"NY","code":"efr newa","affiliation":"Lake Erie Regional Grape Program","affiliation_url":"https://lergp.cce.cornell.edu/","latitude":42.4474,"longitude":-79.2961,"elevation":827,"start_year":2018,"is_icao":false},{"name":"East Lansing (HTRC)","state":"MI","code":"htc miwx","affiliation":"Michigan State University","affiliation_url":"","latitude":42.711,"longitude":-84.476,"elevation":256,"start_year":2015,"is_icao":false},{"name":"East Lansing (MSU Hort)","state":"MI","code":"msu miwx","affiliation":"Michigan State University","affiliation_url":"","latitude":42.6734,"longitude":-84.487,"elevation":264,"start_year":2015,"is_icao":false},{"name":"East Leland","state":"MI","code":"eld miwx","affiliation":"Michigan State University","affiliation_url":"","latitude":45.0301,"longitude":-85.6743,"elevation":843,"start_year":2015,"is_icao":false},{"name":"East Lyme","state":"CT","code":"ct_ely newa","affiliation":"NEWA in Connecticut","affiliation_url":"https://www.extension.uconn.edu","latitude":41.3534,"longitude":-72.2473,"elevation":150,"start_year":2014,"is_icao":false},{"name":"East Montpelier","state":"VT","code":"vem newa","affiliation":"University of Vermont","affiliation_url":"https://www.uvm.edu","latitude":44.3182,"longitude":-72.507,"elevation":1162,"start_year":2016,"is_icao":false},{"name":"East Thetford","state":"VT","code":"vet newa","affiliation":"NEWA in Vermont","affiliation_url":"","latitude":43.8064,"longitude":-72.1888,"elevation":411,"start_year":2017,"is_icao":false},{"name":"East Westfield","state":"NY","code":"ewe newa","affiliation":"Lake Erie Regional Grape Program","affiliation_url":"https://lergp.cce.cornell.edu/","latitude":42.34,"longitude":-79.5227,"elevation":835,"start_year":2018,"is_icao":false},{"name":"Easthampton","state":"MA","code":"ma_east nwon","affiliation":"NEWA in Massachusetts","affiliation_url":"","latitude":42.2857,"longitude":-72.6953,"elevation":254,"start_year":2019,"is_icao":false},{"name":"Eastport","state":"MI","code":"epr miwx","affiliation":"Michigan State University","affiliation_url":"","latitude":45.1081,"longitude":-85.3247,"elevation":228,"start_year":2015,"is_icao":false},{"name":"Eau Claire","state":"WI","code":"wi_eau newa","affiliation":"NEWA in Wisconsin","affiliation_url":"","latitude":44.719,"longitude":-91.531,"elevation":925,"start_year":2017,"is_icao":false},{"name":"Eau Claire Airport","state":"WI","code":"keau icao","affiliation":"National Weather Service","affiliation_url":"https://www.weather.gov/","latitude":44.8664,"longitude":-91.4878,"elevation":885,"start_year":1996,"is_icao":true},{"name":"Edneyville (Apple Wedge)","state":"NC","code":"nc_eaw newa","affiliation":"North Carolina Apple Growers Association","affiliation_url":"","latitude":35.4049,"longitude":-82.3536,"elevation":2248,"start_year":2016,"is_icao":false},{"name":"Edneyville (Gilbert)","state":"NC","code":"nc_egi newa","affiliation":"D & D Gilbert Orchards Inc.","affiliation_url":"","latitude":35.3711,"longitude":-82.3331,"elevation":2212,"start_year":2021,"is_icao":false},{"name":"Edneyville (Sugarloaf Mtn)","state":"NC","code":"nc_esm newa","affiliation":"Blue Ridge Apple Growers Association","affiliation_url":"https://www.blueridgeapplegrowers.com/","latitude":35.3919,"longitude":-82.2753,"elevation":2964,"start_year":2016,"is_icao":false},{"name":"Egg Harbor","state":"NJ","code":"232 njwx","affiliation":"Rutgers New Jersey Weather Network","affiliation_url":"https://www.njweather.org/","latitude":39.4227,"longitude":-74.5421,"elevation":12,"start_year":2011,"is_icao":false},{"name":"Egg Harbor","state":"WI","code":"ehb miwx","affiliation":"Enviroweather at Michigan State University and University of Wisconsin-Madison","affiliation_url":"http://cals.wisc.edu/","latitude":45.0509,"longitude":-87.2598,"elevation":734,"start_year":2015,"is_icao":false},{"name":"Elba","state":"NY","code":"elb newa","affiliation":"NEWA in New York","affiliation_url":"","latitude":43.152,"longitude":-78.147,"elevation":651,"start_year":1996,"is_icao":false},{"name":"Elba (Torrey)","state":"NY","code":"ny_elba nwon","affiliation":"New York State IPM Program","affiliation_url":"https://nysipm.cornell.edu","latitude":43.15,"longitude":-78.1164,"elevation":640,"start_year":2021,"is_icao":false},{"name":"Elbridge/Hart","state":"MI","code":"elb miwx","affiliation":"Michigan State University","affiliation_url":"","latitude":43.6793,"longitude":-86.1893,"elevation":276,"start_year":2016,"is_icao":false},{"name":"Elgin","state":"MN","code":"mn_elg newa","affiliation":"Minnesota Apple Growers Association","affiliation_url":"","latitude":44.1364,"longitude":-92.2424,"elevation":1050,"start_year":2015,"is_icao":false},{"name":"Elizabeth","state":"IL","code":"il_eli newa","affiliation":"Illinois Grape Growers and Vintners Alliance","affiliation_url":"https://illinoiswine.com/","latitude":42.2435,"longitude":-90.1207,"elevation":965,"start_year":2021,"is_icao":false},{"name":"Elk Rapids","state":"MI","code":"elk miwx","affiliation":"Michigan State University","affiliation_url":"","latitude":44.8448,"longitude":-85.4062,"elevation":198,"start_year":2015,"is_icao":false},{"name":"Elk Township","state":"NJ","code":"nj_elk newa","affiliation":"NEWA in New Jersey","affiliation_url":"","latitude":39.6664,"longitude":-75.1847,"elevation":136,"start_year":2015,"is_icao":false},{"name":"Ellendale (DHSS)","state":"DE","code":"DELN deos","affiliation":"","affiliation_url":"","latitude":38.8083,"longitude":-75.4272,"elevation":49,"start_year":2007,"is_icao":false},{"name":"Ellijay","state":"GA","code":"ga_elli nwon","affiliation":"BJ Reece Orchards","affiliation_url":"","latitude":34.6206,"longitude":-84.3803,"elevation":1673,"start_year":2021,"is_icao":false},{"name":"Ellington","state":"CT","code":"ct_ell newa","affiliation":"NEWA in Connecticut","affiliation_url":"https://www.extension.uconn.edu","latitude":41.9173,"longitude":-72.4582,"elevation":246,"start_year":2016,"is_icao":false},{"name":"Elmira","state":"NY","code":"kelm icao","affiliation":"National Weather Service","affiliation_url":"https://www.weather.gov/","latitude":42.1594,"longitude":-76.8919,"elevation":955,"start_year":1996,"is_icao":true},{"name":"Ely","state":"IA","code":"ia_ely newa","affiliation":"NEWA in Iowa","affiliation_url":"","latitude":41.8583,"longitude":-91.609,"elevation":775,"start_year":2017,"is_icao":false},{"name":"Emmett","state":"MI","code":"emt miwx","affiliation":"Michigan State University","affiliation_url":"","latitude":42.9914,"longitude":-82.7598,"elevation":239,"start_year":2015,"is_icao":false},{"name":"Enfield","state":"CT","code":"ct_enf newa","affiliation":"NEWA in Connecticut","affiliation_url":"https://www.extension.uconn.edu","latitude":41.9761,"longitude":-72.5042,"elevation":250,"start_year":2014,"is_icao":false},{"name":"Entrican","state":"MI","code":"ent miwx","affiliation":"Michigan State University","affiliation_url":"","latitude":43.3541,"longitude":-85.1791,"elevation":290,"start_year":2015,"is_icao":false},{"name":"Erie","state":"PA","code":"keri icao","affiliation":"National Weather Service","affiliation_url":"https://www.weather.gov/","latitude":42.08,"longitude":-80.1825,"elevation":730,"start_year":1996,"is_icao":true},{"name":"Escanaba","state":"MI","code":"esc miwx","affiliation":"Michigan State University","affiliation_url":"","latitude":45.8551,"longitude":-87.1844,"elevation":221,"start_year":2015,"is_icao":false},{"name":"Esmont (Rees Vineyard)","state":"VA","code":"va_esmo nwon","affiliation":"Virginia Polytechnic Institute and State University","affiliation_url":"http://grapepathology.org","latitude":37.739,"longitude":-78.653,"elevation":393,"start_year":2020,"is_icao":false},{"name":"Essex","state":"VT","code":"vex newa","affiliation":"NEWA in Vermont","affiliation_url":"","latitude":44.5375,"longitude":-73.0611,"elevation":572,"start_year":2015,"is_icao":false},{"name":"Fair Hill (NRMA)","state":"MD","code":"DFHM deos","affiliation":"","affiliation_url":"","latitude":39.7099,"longitude":-75.8386,"elevation":150,"start_year":2004,"is_icao":false},{"name":"Fairfield","state":"NJ","code":"kcdw icao","affiliation":"National Weather Service","affiliation_url":"https://www.weather.gov/","latitude":40.8764,"longitude":-74.2831,"elevation":173,"start_year":1996,"is_icao":true},{"name":"Fairgrove","state":"MI","code":"fgv miwx","affiliation":"Michigan State University","affiliation_url":"","latitude":43.5276,"longitude":-83.4864,"elevation":660,"start_year":2015,"is_icao":false},{"name":"Fairville (The Apple Shed)","state":"NY","code":"fai newa","affiliation":"NEWA in New York","affiliation_url":"","latitude":43.1301,"longitude":-77.0958,"elevation":509,"start_year":2016,"is_icao":false},{"name":"Falmouth Otis AFB","state":"MA","code":"kfmh icao","affiliation":"National Weather Service","affiliation_url":"https://www.weather.gov/","latitude":41.65,"longitude":-70.5167,"elevation":131,"start_year":2000,"is_icao":true},{"name":"Farmingdale","state":"NJ","code":"kblm icao","affiliation":"National Weather Service","affiliation_url":"https://www.weather.gov/","latitude":40.18,"longitude":-74.13,"elevation":157,"start_year":1996,"is_icao":true},{"name":"Farmingdale","state":"NY","code":"kfrg icao","affiliation":"National Weather Service","affiliation_url":"https://www.weather.gov/","latitude":40.7342,"longitude":-73.4169,"elevation":81,"start_year":1996,"is_icao":true},{"name":"Farmington","state":"NH","code":"nh_far newa","affiliation":"Butternut Farm","affiliation_url":"http://www.butternutfarm.net","latitude":43.324,"longitude":-71.0685,"elevation":673,"start_year":2021,"is_icao":false},{"name":"Farmington","state":"NY","code":"far newa","affiliation":"New York State IPM Program","affiliation_url":"https://nysipm.cornell.edu","latitude":42.99,"longitude":-77.262,"elevation":915,"start_year":2003,"is_icao":false},{"name":"Fayetteville","state":"NC","code":"kfay icao","affiliation":"National Weather Service","affiliation_url":"https://www.weather.gov/","latitude":34.9914,"longitude":-78.8803,"elevation":186,"start_year":1996,"is_icao":true},{"name":"Fennville","state":"MI","code":"fev miwx","affiliation":"Michigan State University","affiliation_url":"","latitude":42.5951,"longitude":-86.1561,"elevation":214,"start_year":2015,"is_icao":false},{"name":"Fitchburg","state":"MA","code":"kfit icao","affiliation":"National Weather Service","affiliation_url":"https://www.weather.gov/","latitude":42.5519,"longitude":-71.7558,"elevation":348,"start_year":1997,"is_icao":true},{"name":"Flint","state":"MI","code":"flt miwx","affiliation":"Michigan State University","affiliation_url":"","latitude":43.0241,"longitude":-83.6745,"elevation":228,"start_year":2015,"is_icao":false},{"name":"Flint (AP)","state":"MI","code":"kfnt icao","affiliation":"National Weather Service","affiliation_url":"https://www.weather.gov/","latitude":42.9667,"longitude":-83.7494,"elevation":769,"start_year":1996,"is_icao":true},{"name":"Floyd (CLH Orchard)","state":"VA","code":"va_flo newa","affiliation":"NEWA in Virginia","affiliation_url":"","latitude":36.9861,"longitude":-80.3591,"elevation":2483,"start_year":2018,"is_icao":false},{"name":"Fond Du Lac","state":"WI","code":"kfld icao","affiliation":"National Weather Service","affiliation_url":"https://www.weather.gov/","latitude":43.7694,"longitude":-88.4908,"elevation":807,"start_year":1996,"is_icao":true},{"name":"Forestville","state":"NY","code":"for newa","affiliation":"Lake Erie Regional Grape Program","affiliation_url":"https://lergp.cce.cornell.edu/","latitude":42.4672,"longitude":-79.2521,"elevation":826,"start_year":2018,"is_icao":false},{"name":"Fort Atkinson","state":"WI","code":"wi_fta newa","affiliation":"NEWA in Wisconsin","affiliation_url":"","latitude":42.9308,"longitude":-88.9315,"elevation":881,"start_year":2018,"is_icao":false},{"name":"Fort Atkinson (Warm Belly Farm)","state":"WI","code":"wi_fat newa","affiliation":"","affiliation_url":"","latitude":42.966,"longitude":-89.0202,"elevation":850,"start_year":2021,"is_icao":false},{"name":"Fortescue","state":"NJ","code":"3530 njwx","affiliation":"Rutgers New Jersey Weather Network","affiliation_url":"https://www.njweather.org/","latitude":39.2425,"longitude":-75.177,"elevation":4,"start_year":2016,"is_icao":false},{"name":"Frankfort","state":"KY","code":"kfft icao","affiliation":"National Weather Service","affiliation_url":"https://www.weather.gov/","latitude":38.1847,"longitude":-84.9033,"elevation":804,"start_year":1996,"is_icao":true},{"name":"Fredonia","state":"NY","code":"fred nysm","affiliation":"NYS Mesonet at UAlbany","affiliation_url":"http://www.nysmesonet.org","latitude":42.4182,"longitude":-79.3666,"elevation":239,"start_year":2016,"is_icao":false},{"name":"Freeland","state":"MI","code":"frl miwx","affiliation":"Michigan State University","affiliation_url":"","latitude":43.5631,"longitude":-84.0233,"elevation":182,"start_year":2015,"is_icao":false},{"name":"Freemont (North Central ARS)","state":"OH","code":"ncen oardc","affiliation":"The Ohio State University CFAES Weather System","affiliation_url":"https://www.oardc.ohio-state.edu/weather1/","latitude":41.3503,"longitude":-83.1219,"elevation":636,"start_year":2009,"is_icao":false},{"name":"Freeville","state":"NY","code":"fre newa","affiliation":"Cornell University Agricultural Experiment Station","affiliation_url":"https://cuaes.cals.cornell.edu/","latitude":42.4975,"longitude":-76.2998,"elevation":1100,"start_year":2002,"is_icao":false},{"name":"Fremont","state":"MI","code":"frm miwx","affiliation":"Michigan State University","affiliation_url":"","latitude":43.4225,"longitude":-85.9551,"elevation":233,"start_year":2015,"is_icao":false},{"name":"Fulton","state":"NY","code":"kfzy icao","affiliation":"National Weather Service","affiliation_url":"https://www.weather.gov/","latitude":43.3497,"longitude":-76.3847,"elevation":475,"start_year":1997,"is_icao":true},{"name":"Gales Ferry","state":"CT","code":"ct_gfy newa","affiliation":"NEWA in Connecticut","affiliation_url":"https://www.extension.uconn.edu","latitude":41.4684,"longitude":-72.0573,"elevation":160,"start_year":2014,"is_icao":false},{"name":"Gansevoort (Welcome Stock)","state":"NY","code":"gws newa","affiliation":"NEWA in New York","affiliation_url":"","latitude":43.1465,"longitude":-73.5993,"elevation":227,"start_year":2016,"is_icao":false},{"name":"Gastonia","state":"NC","code":"kakh icao","affiliation":"National Weather Service","affiliation_url":"https://www.weather.gov/","latitude":35.1967,"longitude":-81.1558,"elevation":797,"start_year":1999,"is_icao":true},{"name":"Gaylord","state":"MI","code":"gay miwx","affiliation":"Michigan State University","affiliation_url":"","latitude":45.0315,"longitude":-84.8481,"elevation":434,"start_year":2015,"is_icao":false},{"name":"Gaylord (AP)","state":"MI","code":"kglr icao","affiliation":"National Weather Service","affiliation_url":"https://www.weather.gov/","latitude":45.0133,"longitude":-84.7014,"elevation":1335,"start_year":1998,"is_icao":true},{"name":"Gays Mills","state":"WI","code":"wi_gay newa","affiliation":"NEWA in Wisconsin","affiliation_url":"","latitude":43.3146,"longitude":-90.8415,"elevation":942,"start_year":2014,"is_icao":false},{"name":"Geneva","state":"NY","code":"gen newa","affiliation":"New York State IPM Program","affiliation_url":"https://nysipm.cornell.edu","latitude":42.8767,"longitude":-77.031,"elevation":650,"start_year":1996,"is_icao":false},{"name":"Geneva","state":"OH","code":"oh_gen newa","affiliation":"NEWA in Ohio","affiliation_url":"","latitude":41.7582,"longitude":-80.9639,"elevation":860,"start_year":2018,"is_icao":false},{"name":"Geneva (3 Brothers Winery)","state":"NY","code":"ny_gent nwon","affiliation":"Three Brothers Winery","affiliation_url":"","latitude":42.8238,"longitude":-76.9259,"elevation":546,"start_year":2021,"is_icao":false},{"name":"Geneva (AgriTech Crittenden)","state":"NY","code":"ny_genc nwon","affiliation":"New York State IPM Program","affiliation_url":"https://nysipm.cornell.edu","latitude":42.8794,"longitude":-77.0154,"elevation":617,"start_year":2021,"is_icao":false},{"name":"Geneva (AgriTech Darrow)","state":"NY","code":"ny_gend nwon","affiliation":"New York State IPM Program","affiliation_url":"https://nysipm.cornell.edu","latitude":42.8773,"longitude":-77.0509,"elevation":771,"start_year":2019,"is_icao":false},{"name":"Geneva (AgriTech Gates)","state":"NY","code":"ny_geng nwon","affiliation":"New York State IPM Program","affiliation_url":"https://nysipm.cornell.edu","latitude":42.8701,"longitude":-77.0568,"elevation":794,"start_year":2021,"is_icao":false},{"name":"Geneva (AgriTech North)","state":"NY","code":"ny_genn nwon","affiliation":"New York State IPM Program","affiliation_url":"https://nysipm.cornell.edu","latitude":42.8733,"longitude":-77.0282,"elevation":702,"start_year":2019,"is_icao":false},{"name":"Geneva (Bejo)","state":"NY","code":"gbe newa","affiliation":"NEWA in New York","affiliation_url":"","latitude":42.8276,"longitude":-77.0105,"elevation":700,"start_year":2012,"is_icao":false},{"name":"Geneva (Kosicek)","state":"OH","code":"oh_gko newa","affiliation":"NEWA in Ohio","affiliation_url":"","latitude":41.7389,"longitude":-80.9441,"elevation":960,"start_year":2018,"is_icao":false},{"name":"Genoa City","state":"WI","code":"wi_gen newa","affiliation":"Hafs Road Orchard ","affiliation_url":"","latitude":42.5622,"longitude":-88.3312,"elevation":880,"start_year":2020,"is_icao":false},{"name":"Genola (CHF Gala)","state":"UT","code":"42.05 ucc","affiliation":"The Utah Climate Center at Utah State University","affiliation_url":"","latitude":40.0367,"longitude":-111.851,"elevation":4660,"start_year":2012,"is_icao":false},{"name":"Genola South (McMullin)","state":"UT","code":"42.30 ucc","affiliation":"The Utah Climate Center at Utah State University","affiliation_url":"","latitude":40.005,"longitude":-111.82,"elevation":4714,"start_year":2012,"is_icao":false},{"name":"Georgetown","state":"DE","code":"kged icao","affiliation":"National Weather Service","affiliation_url":"https://www.weather.gov/","latitude":38.6892,"longitude":-75.3592,"elevation":51,"start_year":1997,"is_icao":true},{"name":"Georgetown (REC)","state":"DE","code":"DGES deos","affiliation":"","affiliation_url":"","latitude":38.6361,"longitude":-75.455,"elevation":45,"start_year":2005,"is_icao":false},{"name":"Germantown","state":"NY","code":"ger newa","affiliation":"NEWA in New York","affiliation_url":"","latitude":42.1581,"longitude":-73.8264,"elevation":243,"start_year":2019,"is_icao":false},{"name":"Glasgow (SPB)","state":"DE","code":"DGLW deos","affiliation":"","affiliation_url":"","latitude":39.6059,"longitude":-75.7269,"elevation":70,"start_year":2006,"is_icao":false},{"name":"Glenmoore (Springton Manor)","state":"PA","code":"DSGM deos","affiliation":"","affiliation_url":"","latitude":40.0694,"longitude":-75.7775,"elevation":620,"start_year":2011,"is_icao":false},{"name":"Glens Falls","state":"NY","code":"kgfl icao","affiliation":"National Weather Service","affiliation_url":"https://www.weather.gov/","latitude":43.3411,"longitude":-73.6103,"elevation":320,"start_year":1996,"is_icao":true},{"name":"Goffstown","state":"NH","code":"nh_gof newa","affiliation":"University of New Hampshire Cooperative Extension","affiliation_url":"https://extension.unh.edu/","latitude":43.0092,"longitude":-71.5348,"elevation":271,"start_year":2017,"is_icao":false},{"name":"Goshen (CHF)","state":"UT","code":"42.25 ucc","affiliation":"The Utah Climate Center at Utah State University","affiliation_url":"","latitude":39.9233,"longitude":-111.883,"elevation":4762,"start_year":2012,"is_icao":false},{"name":"Grafton","state":"IL","code":"il_gra newa","affiliation":"Eckert's Orchards","affiliation_url":"","latitude":39.0157,"longitude":-90.4078,"elevation":670,"start_year":2016,"is_icao":false},{"name":"Grand Junction","state":"MI","code":"grj miwx","affiliation":"Michigan State University","affiliation_url":"","latitude":42.402,"longitude":-86.0731,"elevation":687,"start_year":2015,"is_icao":false},{"name":"Grand Rapids (Airport)","state":"MN","code":"kgpz icao","affiliation":"National Weather Service","affiliation_url":"https://www.weather.gov/","latitude":47.2111,"longitude":-93.5097,"elevation":1355,"start_year":1996,"is_icao":true},{"name":"Grand Rapids (AP)","state":"MI","code":"kgrr icao","affiliation":"National Weather Service","affiliation_url":"https://www.weather.gov/","latitude":42.8825,"longitude":-85.5239,"elevation":803,"start_year":1996,"is_icao":true},{"name":"Grant","state":"MI","code":"grt miwx","affiliation":"Michigan State University","affiliation_url":"","latitude":43.3326,"longitude":-85.8484,"elevation":791,"start_year":2017,"is_icao":false},{"name":"Granville","state":"NY","code":"gra newa","affiliation":"NEWA in New York","affiliation_url":"","latitude":43.4125,"longitude":-73.3311,"elevation":676,"start_year":2011,"is_icao":false},{"name":"Grayslake","state":"IL","code":"il_gray nwon","affiliation":"","affiliation_url":"","latitude":42.3331,"longitude":-88.0161,"elevation":800,"start_year":2019,"is_icao":false},{"name":"Green Bay","state":"WI","code":"kgrb icao","affiliation":"National Weather Service","affiliation_url":"https://www.weather.gov/","latitude":44.4794,"longitude":-88.1367,"elevation":687,"start_year":1996,"is_icao":true},{"name":"Green Creek (Polk Co Ag)","state":"NC","code":"nc_gre newa","affiliation":"North Carolina Apple Growers Association","affiliation_url":"","latitude":35.199,"longitude":-81.971,"elevation":1002,"start_year":2017,"is_icao":false},{"name":"Greensboro","state":"NC","code":"kgso icao","affiliation":"National Weather Service","affiliation_url":"https://www.weather.gov/","latitude":36.0969,"longitude":-79.9433,"elevation":908,"start_year":1996,"is_icao":true},{"name":"Greenville (Winterthur)","state":"DE","code":"DGRN deos","affiliation":"","affiliation_url":"","latitude":39.8025,"longitude":-75.6072,"elevation":427,"start_year":2010,"is_icao":false},{"name":"Greenwich","state":"NJ","code":"3485 njwx","affiliation":"Rutgers New Jersey Weather Network","affiliation_url":"https://www.njweather.org/","latitude":39.4419,"longitude":-75.3823,"elevation":39,"start_year":2016,"is_icao":false},{"name":"Greer","state":"SC","code":"kgsp icao","affiliation":"National Weather Service","affiliation_url":"https://www.weather.gov/","latitude":34.8842,"longitude":-82.2208,"elevation":943,"start_year":1996,"is_icao":true},{"name":"Gretna","state":"NE","code":"ne_gre newa","affiliation":"NEWA in Nebraska","affiliation_url":"","latitude":41.1288,"longitude":-96.2011,"elevation":354,"start_year":2016,"is_icao":false},{"name":"Griffiss","state":"NY","code":"krme icao","affiliation":"National Weather Service","affiliation_url":"https://www.weather.gov/","latitude":43.2333,"longitude":-75.4,"elevation":519,"start_year":2007,"is_icao":true},{"name":"Guilderland (Clover Pond)","state":"NY","code":"gul newa","affiliation":"NEWA in New York","affiliation_url":"","latitude":42.725,"longitude":-73.9624,"elevation":300,"start_year":2019,"is_icao":false},{"name":"Guilford","state":"CT","code":"ct_gui newa","affiliation":"NEWA in Connecticut","affiliation_url":"https://www.extension.uconn.edu","latitude":41.2932,"longitude":-72.6943,"elevation":58,"start_year":2014,"is_icao":false},{"name":"Hagerstown","state":"MD","code":"khgr icao","affiliation":"National Weather Service","affiliation_url":"https://www.weather.gov/","latitude":39.7078,"longitude":-77.7297,"elevation":698,"start_year":1996,"is_icao":true},{"name":"Halifax","state":"PA","code":"pa_hal newa","affiliation":"Armstrong Valley Winery","affiliation_url":"http://www.armstrongvalleywinery.com","latitude":40.4772,"longitude":-76.8883,"elevation":523,"start_year":2020,"is_icao":false},{"name":"Hamilton","state":"NJ","code":"3406 njwx","affiliation":"Rutgers New Jersey Weather Network","affiliation_url":"https://www.njweather.org/","latitude":40.2244,"longitude":-74.6117,"elevation":28,"start_year":2010,"is_icao":false},{"name":"Hammondsport (Doyle Vineyard)","state":"NY","code":"ham newa","affiliation":"NEWA in New York","affiliation_url":"","latitude":42.498,"longitude":-77.1709,"elevation":1099,"start_year":2017,"is_icao":false},{"name":"Hammonton 2","state":"NJ","code":"3479 njwx","affiliation":"Rutgers New Jersey Weather Network","affiliation_url":"https://www.njweather.org/","latitude":39.64,"longitude":-74.75,"elevation":55,"start_year":2011,"is_icao":false},{"name":"Hanover","state":"IL","code":"il_han newa","affiliation":"","affiliation_url":"","latitude":42.2933,"longitude":-90.3463,"elevation":988,"start_year":2020,"is_icao":false},{"name":"Hanover","state":"NY","code":"han newa","affiliation":"Lake Erie Regional Grape Program","affiliation_url":"https://lergp.cce.cornell.edu/","latitude":42.5251,"longitude":-79.1314,"elevation":785,"start_year":2018,"is_icao":false},{"name":"Harbeson (REC)","state":"DE","code":"DWAR deos","affiliation":"","affiliation_url":"","latitude":38.6786,"longitude":-75.2464,"elevation":34,"start_year":2005,"is_icao":false},{"name":"Harborcreek","state":"PA","code":"har newa","affiliation":"State Horticultural Association of Pennsylvania","affiliation_url":"","latitude":42.1931,"longitude":-79.9049,"elevation":742,"start_year":2010,"is_icao":false},{"name":"Harborcreek (Escarpment)","state":"PA","code":"pa_hae newa","affiliation":"Lake Erie Regional Grape Program","affiliation_url":"https://lergp.cce.cornell.edu/","latitude":42.1487,"longitude":-79.9182,"elevation":1103,"start_year":2018,"is_icao":false},{"name":"Harrington Raceway","state":"DE","code":"DHAR deos","affiliation":"","affiliation_url":"","latitude":38.9113,"longitude":-75.5767,"elevation":55,"start_year":2006,"is_icao":false},{"name":"Hart","state":"MI","code":"hrt miwx","affiliation":"Michigan State University","affiliation_url":"","latitude":43.7366,"longitude":-86.3594,"elevation":233,"start_year":2015,"is_icao":false},{"name":"Hartford","state":"MI","code":"hfd miwx","affiliation":"Michigan State University","affiliation_url":"","latitude":42.2275,"longitude":-86.1403,"elevation":226,"start_year":2015,"is_icao":false},{"name":"Hartford (Bradley AP)","state":"CT","code":"kbdl icao","affiliation":"National Weather Service","affiliation_url":"https://www.weather.gov/","latitude":41.94,"longitude":-72.68,"elevation":190,"start_year":1996,"is_icao":true},{"name":"Harvard","state":"MA","code":"mha newa","affiliation":"Carlson Orchards","affiliation_url":"","latitude":42.5006,"longitude":-71.5625,"elevation":564,"start_year":2011,"is_icao":false},{"name":"Harvard (Doe Orchards)","state":"MA","code":"mhr newa","affiliation":"","affiliation_url":"","latitude":42.5439,"longitude":-71.5753,"elevation":290,"start_year":2021,"is_icao":false},{"name":"Harvard (Royal Oak)","state":"IL","code":"il_har newa","affiliation":"Royal Oak Farm, Inc.","affiliation_url":"https://www.royaloakfarmorchard.com/","latitude":42.485,"longitude":-88.5061,"elevation":1020,"start_year":2018,"is_icao":false},{"name":"Haslett","state":"MI","code":"has miwx","affiliation":"Michigan State University","affiliation_url":"","latitude":42.7703,"longitude":-84.3297,"elevation":281,"start_year":2015,"is_icao":false},{"name":"Hastings","state":"MI","code":"pcc miwx","affiliation":"Michigan State University","affiliation_url":"","latitude":42.535,"longitude":-85.3019,"elevation":282,"start_year":2015,"is_icao":false},{"name":"Hastings","state":"MN","code":"mn_has newa","affiliation":"Minnesota Apple Growers Association","affiliation_url":"","latitude":44.7884,"longitude":-92.8168,"elevation":904,"start_year":2015,"is_icao":false},{"name":"Hastings (Carpenter Nature Center)","state":"MN","code":"mn_hcn newa","affiliation":"Carpenter Nature Center","affiliation_url":"http://www.carpenternaturecenter.org","latitude":44.7643,"longitude":-92.8151,"elevation":853,"start_year":2019,"is_icao":false},{"name":"Haverford","state":"PA","code":"pa_have nwon","affiliation":"Haverford Reserve","affiliation_url":"https://www.havtrail.com/weather/","latitude":39.9934,"longitude":-75.3431,"elevation":290,"start_year":2019,"is_icao":false},{"name":"Hawks","state":"MI","code":"haw miwx","affiliation":"Michigan State University","affiliation_url":"","latitude":45.2994,"longitude":-83.8528,"elevation":252,"start_year":2015,"is_icao":false},{"name":"Hawley","state":"MA","code":"ma_hawl nwon","affiliation":"Headwater Cider","affiliation_url":"http://www.headwatercider.com","latitude":42.5816,"longitude":-72.8607,"elevation":1635,"start_year":2020,"is_icao":false},{"name":"Haworth","state":"NJ","code":"1033 njwx","affiliation":"Rutgers New Jersey Weather Network","affiliation_url":"https://www.njweather.org/","latitude":40.9593,"longitude":-74.0135,"elevation":8,"start_year":2011,"is_icao":false},{"name":"Hayward","state":"WI","code":"khyr icao","affiliation":"National Weather Service","affiliation_url":"https://www.weather.gov/","latitude":46.0261,"longitude":-91.4442,"elevation":1204,"start_year":1996,"is_icao":true},{"name":"Hegins (Schwalm)","state":"PA","code":"pa_heg newa","affiliation":"State Horticultural Association of Pennsylvania","affiliation_url":"","latitude":40.6568,"longitude":-76.4887,"elevation":237,"start_year":2015,"is_icao":false},{"name":"Hendersonville (Klimstra)","state":"NC","code":"nc_hen newa","affiliation":"Klimstra in Big Willow","affiliation_url":"","latitude":35.2809,"longitude":-82.5305,"elevation":2343,"start_year":2015,"is_icao":false},{"name":"Hickory","state":"NC","code":"khky icao","affiliation":"National Weather Service","affiliation_url":"https://www.weather.gov/","latitude":35.7425,"longitude":-81.3819,"elevation":1143,"start_year":1996,"is_icao":true},{"name":"Hickory Corners (KBS)","state":"MI","code":"kbs miwx","affiliation":"Michigan State University","affiliation_url":"","latitude":42.4081,"longitude":-85.3736,"elevation":285,"start_year":2015,"is_icao":false},{"name":"High Point","state":"NJ","code":"286 njwx","affiliation":"Rutgers New Jersey Weather Network","affiliation_url":"https://www.njweather.org/","latitude":41.305,"longitude":-74.666,"elevation":422,"start_year":2011,"is_icao":false},{"name":"Highland HVL","state":"NY","code":"ny_high nwon","affiliation":"Hudson Valley Research Laboratory","affiliation_url":"https://www.farmhv.org/","latitude":41.7465,"longitude":-73.9678,"elevation":450,"start_year":2021,"is_icao":false},{"name":"Hockessin (VFC)","state":"DE","code":"DHOC deos","affiliation":"","affiliation_url":"","latitude":39.7887,"longitude":-75.7008,"elevation":253,"start_year":2006,"is_icao":false},{"name":"Holland (AP)","state":"MI","code":"kbiv icao","affiliation":"National Weather Service","affiliation_url":"https://www.weather.gov/","latitude":42.7461,"longitude":-86.0967,"elevation":680,"start_year":1996,"is_icao":true},{"name":"Hollis","state":"NH","code":"nh_hol newa","affiliation":"NEWA in New Hampshire","affiliation_url":"","latitude":42.7393,"longitude":-71.5792,"elevation":104,"start_year":2015,"is_icao":false},{"name":"Holmdel","state":"NJ","code":"3403 njwx","affiliation":"Rutgers New Jersey Weather Network","affiliation_url":"https://www.njweather.org/","latitude":40.3776,"longitude":-74.18,"elevation":48,"start_year":2011,"is_icao":false},{"name":"Hopewell Junction","state":"NY","code":"ny_hope nwon","affiliation":"NEWA in New York","affiliation_url":"","latitude":41.5184,"longitude":-73.823,"elevation":417,"start_year":2020,"is_icao":false},{"name":"Hopewell Twp","state":"NJ","code":"3526 njwx","affiliation":"Rutgers New Jersey Weather Network","affiliation_url":"https://www.njweather.org/","latitude":40.3523,"longitude":-74.775,"elevation":195,"start_year":2016,"is_icao":false},{"name":"Hostetler Airport (StoneView)","state":"PA","code":"pa_hun newa","affiliation":"State Horticultural Association of Pennsylvania","affiliation_url":"","latitude":40.6312,"longitude":-77.8502,"elevation":742,"start_year":2016,"is_icao":false},{"name":"Houghton Lake (AP)","state":"MI","code":"khtl icao","affiliation":"National Weather Service","affiliation_url":"https://www.weather.gov/","latitude":44.3592,"longitude":-84.6739,"elevation":1151,"start_year":1996,"is_icao":true},{"name":"Howell","state":"NJ","code":"3397 njwx","affiliation":"Rutgers New Jersey Weather Network","affiliation_url":"https://www.njweather.org/","latitude":40.1922,"longitude":-74.1958,"elevation":3,"start_year":2011,"is_icao":false},{"name":"Hudson","state":"MI","code":"hdn miwx","affiliation":"Michigan State University","affiliation_url":"","latitude":41.8729,"longitude":-84.2259,"elevation":265,"start_year":2015,"is_icao":false},{"name":"Hudson Falls (Ideal Dairy)","state":"NY","code":"hid newa","affiliation":"NEWA in New York","affiliation_url":"","latitude":43.3318,"longitude":-73.5805,"elevation":293,"start_year":2016,"is_icao":false},{"name":"Hudsonville","state":"MI","code":"hvl miwx","affiliation":"Michigan State University","affiliation_url":"","latitude":42.8594,"longitude":-85.8895,"elevation":631,"start_year":2015,"is_icao":false},{"name":"Huntsville","state":"AL","code":"khsv icao","affiliation":"National Weather Service","affiliation_url":"https://www.weather.gov/","latitude":34.6439,"longitude":-86.7861,"elevation":624,"start_year":1996,"is_icao":true},{"name":"Hurley","state":"NY","code":"hur newa","affiliation":"NEWA in New York","affiliation_url":"","latitude":41.9127,"longitude":-74.0929,"elevation":162,"start_year":2017,"is_icao":false},{"name":"Huston (Ustick)","state":"ID","code":"43.02 ucc","affiliation":"The Utah Climate Center at Utah State University","affiliation_url":"","latitude":43.5785,"longitude":-116.786,"elevation":2441,"start_year":2015,"is_icao":false},{"name":"Hyannis","state":"MA","code":"khya icao","affiliation":"National Weather Service","affiliation_url":"https://www.weather.gov/","latitude":41.6686,"longitude":-70.28,"elevation":55,"start_year":1996,"is_icao":true},{"name":"Indian River Inlet","state":"DE","code":"DIRL deos","affiliation":"","affiliation_url":"","latitude":38.6331,"longitude":-75.0664,"elevation":15,"start_year":2008,"is_icao":false},{"name":"Interlaken (Airy Acres)","state":"NY","code":"int newa","affiliation":"Airy Acres Vineyard","affiliation_url":"","latitude":42.6363,"longitude":-76.7253,"elevation":242,"start_year":2015,"is_icao":false},{"name":"Iowa City","state":"IA","code":"kiow icao","affiliation":"National Weather Service","affiliation_url":"https://www.weather.gov/","latitude":41.6328,"longitude":-91.5431,"elevation":650,"start_year":1996,"is_icao":true},{"name":"Ipswich (Russell Orchards)","state":"MA","code":"mip newa","affiliation":"NEWA in Massachusetts","affiliation_url":"","latitude":42.6617,"longitude":-70.8031,"elevation":14,"start_year":2016,"is_icao":false},{"name":"Iron Mountain","state":"WI","code":"kimt icao","affiliation":"National Weather Service","affiliation_url":"https://www.weather.gov/","latitude":45.8183,"longitude":-88.1144,"elevation":1149,"start_year":1996,"is_icao":true},{"name":"Islip","state":"NY","code":"kisp icao","affiliation":"National Weather Service","affiliation_url":"https://www.weather.gov/","latitude":40.7939,"longitude":-73.1017,"elevation":84,"start_year":1996,"is_icao":true},{"name":"Ithaca","state":"MI","code":"ith miwx","affiliation":"Michigan State University","affiliation_url":"","latitude":43.3154,"longitude":-84.4884,"elevation":963,"start_year":2015,"is_icao":false},{"name":"Ithaca (Bluegrass Lane)","state":"NY","code":"ny_itbl nwon","affiliation":"Cornell University, SIPS, Horticulture Section","affiliation_url":"","latitude":42.462,"longitude":-76.4639,"elevation":968,"start_year":2020,"is_icao":false},{"name":"Ithaca (CUAES: Cornell Orchards)","state":"NY","code":"ny_itha nwon","affiliation":"Cornell University Agricultural Experiment Station","affiliation_url":"https://cuaes.cals.cornell.edu/","latitude":42.4436,"longitude":-76.4633,"elevation":920,"start_year":2002,"is_icao":false},{"name":"Ithaca Airport","state":"NY","code":"kith icao","affiliation":"National Weather Service","affiliation_url":"https://www.weather.gov/","latitude":42.4833,"longitude":-76.4667,"elevation":1066,"start_year":2005,"is_icao":true},{"name":"Jackson (AP)","state":"MI","code":"kjxn icao","affiliation":"National Weather Service","affiliation_url":"https://www.weather.gov/","latitude":42.2667,"longitude":-84.4667,"elevation":1005,"start_year":1996,"is_icao":true},{"name":"Jaffrey","state":"NH","code":"kafn icao","affiliation":"National Weather Service","affiliation_url":"https://www.weather.gov/","latitude":42.805,"longitude":-72.0036,"elevation":1040,"start_year":1996,"is_icao":true},{"name":"Jamestown","state":"NY","code":"kjhw icao","affiliation":"National Weather Service","affiliation_url":"https://www.weather.gov/","latitude":42.15,"longitude":-79.25,"elevation":1719,"start_year":1996,"is_icao":true},{"name":"Jersey City (LSC)","state":"NJ","code":"3411 njwx","affiliation":"Rutgers New Jersey Weather Network","affiliation_url":"https://www.njweather.org/","latitude":40.7088,"longitude":-74.053,"elevation":1,"start_year":2010,"is_icao":false},{"name":"Johnstown","state":"PA","code":"kjst icao","affiliation":"National Weather Service","affiliation_url":"https://www.weather.gov/","latitude":40.3161,"longitude":-78.8339,"elevation":2270,"start_year":1996,"is_icao":true},{"name":"Jones Crossroads (SSWMC)","state":"DE","code":"DJCR deos","affiliation":"","affiliation_url":"","latitude":38.5947,"longitude":-75.4367,"elevation":61,"start_year":2004,"is_icao":false},{"name":"Kalamazoo","state":"MI","code":"kzo miwx","affiliation":"Michigan State University","affiliation_url":"","latitude":42.3538,"longitude":-85.5855,"elevation":268,"start_year":2015,"is_icao":false},{"name":"Kalamazoo (AP)","state":"MI","code":"kazo icao","affiliation":"National Weather Service","affiliation_url":"https://www.weather.gov/","latitude":42.2347,"longitude":-85.5519,"elevation":868,"start_year":1996,"is_icao":true},{"name":"Kalkaska","state":"MI","code":"kal miwx","affiliation":"Michigan State University","affiliation_url":"","latitude":44.6555,"longitude":-85.0743,"elevation":351,"start_year":2015,"is_icao":false},{"name":"Kaysville (USU Farm)","state":"UT","code":"42.03 ucc","affiliation":"The Utah Climate Center at Utah State University","affiliation_url":"","latitude":41.021,"longitude":-111.93,"elevation":4500,"start_year":2012,"is_icao":false},{"name":"Keeler","state":"MI","code":"klr miwx","affiliation":"Michigan State University","affiliation_url":"","latitude":42.1769,"longitude":-86.18,"elevation":245,"start_year":2015,"is_icao":false},{"name":"Keene","state":"NH","code":"keen icao","affiliation":"National Weather Service","affiliation_url":"https://www.weather.gov/","latitude":42.9,"longitude":-72.2667,"elevation":487,"start_year":1996,"is_icao":true},{"name":"Kennett Square (Bucktoe)","state":"PA","code":"DBUK1 deos","affiliation":"","affiliation_url":"","latitude":39.82,"longitude":-75.7272,"elevation":347,"start_year":2008,"is_icao":false},{"name":"Kennett Square (Longwood)","state":"PA","code":"DLWG deos","affiliation":"","affiliation_url":"","latitude":39.8717,"longitude":-75.6825,"elevation":460,"start_year":2004,"is_icao":false},{"name":"Kenosha","state":"WI","code":"kenw icao","affiliation":"National Weather Service","affiliation_url":"https://www.weather.gov/","latitude":42.595,"longitude":-87.9381,"elevation":743,"start_year":1996,"is_icao":true},{"name":"Kent City","state":"MI","code":"kct miwx","affiliation":"Michigan State University","affiliation_url":"","latitude":43.2463,"longitude":-85.7718,"elevation":289,"start_year":2015,"is_icao":false},{"name":"Kenton (Blackiston)","state":"DE","code":"DBLK deos","affiliation":"","affiliation_url":"","latitude":39.2417,"longitude":-75.7408,"elevation":56,"start_year":2009,"is_icao":false},{"name":"Kewadin","state":"MI","code":"kwd miwx","affiliation":"Michigan State University","affiliation_url":"","latitude":44.9526,"longitude":-85.3347,"elevation":781,"start_year":2015,"is_icao":false},{"name":"Kewaunee/Stangelville","state":"WI","code":"kws miwx","affiliation":"Enviroweather at Michigan State University and University of Wisconsin-Madison","affiliation_url":"http://cals.wisc.edu/","latitude":44.4018,"longitude":-87.6646,"elevation":790,"start_year":2016,"is_icao":false},{"name":"Killingworth","state":"CT","code":"ct_kil newa","affiliation":"Killington Cranberries","affiliation_url":"https://bishopsorchards.com/","latitude":41.4127,"longitude":-72.5812,"elevation":506,"start_year":2017,"is_icao":false},{"name":"Kinde","state":"MI","code":"knd miwx","affiliation":"Michigan State University","affiliation_url":"","latitude":43.924,"longitude":-83.0121,"elevation":215,"start_year":2015,"is_icao":false},{"name":"Kinderhook","state":"NY","code":"kin newa","affiliation":"Samascott Orchards LLC","affiliation_url":"https://www.samascott.com/","latitude":42.3988,"longitude":-73.7034,"elevation":266,"start_year":2015,"is_icao":false},{"name":"Kingsville (AARS Ridgetop)","state":"OH","code":"oh_kin newa","affiliation":"NEWA in Ohio","affiliation_url":"","latitude":41.8847,"longitude":-80.6972,"elevation":750,"start_year":2018,"is_icao":false},{"name":"Kingsville (Ashtabula ARS)","state":"OH","code":"asht oardc","affiliation":"The Ohio State University CFAES Weather System","affiliation_url":"https://www.oardc.ohio-state.edu/weather1/","latitude":41.8846,"longitude":-80.6978,"elevation":789,"start_year":2009,"is_icao":false},{"name":"Kitts Hummock (NERR)","state":"DE","code":"DSJR deos","affiliation":"","affiliation_url":"","latitude":39.0882,"longitude":-75.4373,"elevation":8,"start_year":2004,"is_icao":false},{"name":"Knowlesville","state":"NY","code":"kno newa","affiliation":"Cornell Cooperative Extension Lake Ontario Fruit Program","affiliation_url":"https://lof.cce.cornell.edu/","latitude":43.2258,"longitude":-78.3019,"elevation":524,"start_year":2001,"is_icao":false},{"name":"Knoxville","state":"IL","code":"il_kno newa","affiliation":"Illinois Grape Growers and Vintners Alliance","affiliation_url":"https://illinoiswine.com/","latitude":40.9192,"longitude":-90.2909,"elevation":760,"start_year":2021,"is_icao":false},{"name":"La Crescent","state":"MN","code":"mn_lac newa","affiliation":"Minnesota Apple Growers Association","affiliation_url":"","latitude":43.8277,"longitude":-91.4113,"elevation":1231,"start_year":2015,"is_icao":false},{"name":"La Crosse","state":"WI","code":"klse icao","affiliation":"National Weather Service","affiliation_url":"https://www.weather.gov/","latitude":43.8789,"longitude":-91.2528,"elevation":652,"start_year":1996,"is_icao":true},{"name":"Laconia","state":"NH","code":"klci icao","affiliation":"National Weather Service","affiliation_url":"https://www.weather.gov/","latitude":43.5667,"longitude":-71.4333,"elevation":545,"start_year":1996,"is_icao":true},{"name":"Lafayette","state":"NY","code":"laf newa","affiliation":"NEWA in New York","affiliation_url":"","latitude":42.9097,"longitude":-76.1952,"elevation":584,"start_year":2008,"is_icao":false},{"name":"Lake City","state":"PA","code":"pa_lak newa","affiliation":"State Horticultural Association of Pennsylvania","affiliation_url":"","latitude":42.0355,"longitude":-80.3048,"elevation":685,"start_year":2017,"is_icao":false},{"name":"Lake Leelanau","state":"MI","code":"mi_llee nwon","affiliation":"Harbor Hill Fruit Farms, Inc.","affiliation_url":"","latitude":44.9529,"longitude":-85.768,"elevation":974,"start_year":2021,"is_icao":false},{"name":"Lakehurst NAS","state":"NJ","code":"knel icao","affiliation":"National Weather Service","affiliation_url":"https://www.weather.gov/","latitude":40.03,"longitude":-74.35,"elevation":112,"start_year":1996,"is_icao":true},{"name":"Lakemont","state":"NY","code":"lak newa","affiliation":"NEWA in New York","affiliation_url":"","latitude":42.5102,"longitude":-76.9274,"elevation":880,"start_year":2014,"is_icao":false},{"name":"Lakeville","state":"MA","code":"mla newa","affiliation":"Nemasket Cranberry Co Inc","affiliation_url":"","latitude":41.8785,"longitude":-70.9691,"elevation":13,"start_year":2021,"is_icao":false},{"name":"Lancaster ARS","state":"WI","code":"lct miwx","affiliation":"Michigan State University","affiliation_url":"","latitude":42.83,"longitude":-90.7883,"elevation":318,"start_year":2021,"is_icao":false},{"name":"Landisville","state":"NJ","code":"nj_lan newa","affiliation":"NEWA in New Jersey","affiliation_url":"","latitude":39.54,"longitude":-74.9361,"elevation":115,"start_year":2019,"is_icao":false},{"name":"Lansing (AP)","state":"MI","code":"klan icao","affiliation":"National Weather Service","affiliation_url":"https://www.weather.gov/","latitude":42.7803,"longitude":-84.5789,"elevation":871,"start_year":1996,"is_icao":true},{"name":"Lansing (CUAES: Cornell Orchards)","state":"NY","code":"ny_lans nwon","affiliation":"Cornell University Agricultural Experiment Station","affiliation_url":"https://cuaes.cals.cornell.edu/","latitude":42.5723,"longitude":-76.5951,"elevation":407,"start_year":2002,"is_icao":false},{"name":"Lapeer","state":"MI","code":"lpr miwx","affiliation":"Michigan State University","affiliation_url":"","latitude":43.0426,"longitude":-83.273,"elevation":846,"start_year":2015,"is_icao":false},{"name":"Laurel Airport","state":"DE","code":"DLAU deos","affiliation":"","affiliation_url":"","latitude":38.5415,"longitude":-75.5927,"elevation":40,"start_year":2005,"is_icao":false},{"name":"Laurens","state":"NY","code":"laur nysm","affiliation":"NYS Mesonet at UAlbany","affiliation_url":"http://www.nysmesonet.org","latitude":42.5253,"longitude":-75.1369,"elevation":496,"start_year":2016,"is_icao":false},{"name":"Laurinburg","state":"NC","code":"kmeb icao","affiliation":"National Weather Service","affiliation_url":"https://www.weather.gov/","latitude":34.7917,"longitude":-79.3661,"elevation":220,"start_year":1998,"is_icao":true},{"name":"Lawrence","state":"MA","code":"klwm icao","affiliation":"National Weather Service","affiliation_url":"https://www.weather.gov/","latitude":42.7172,"longitude":-71.1239,"elevation":149,"start_year":1996,"is_icao":true},{"name":"Lawrence/Teapot Dome","state":"MI","code":"tpd miwx","affiliation":"Michigan State University","affiliation_url":"","latitude":42.214,"longitude":-85.9596,"elevation":238,"start_year":2015,"is_icao":false},{"name":"Lawton","state":"MI","code":"law miwx","affiliation":"Michigan State University","affiliation_url":"","latitude":42.1606,"longitude":-85.8321,"elevation":251,"start_year":2015,"is_icao":false},{"name":"Lebanon","state":"NH","code":"kleb icao","affiliation":"National Weather Service","affiliation_url":"https://www.weather.gov/","latitude":43.6264,"longitude":-72.3047,"elevation":598,"start_year":1996,"is_icao":true},{"name":"Leeds (Stirling Farm)","state":"UT","code":"42.29 ucc","affiliation":"The Utah Climate Center at Utah State University","affiliation_url":"","latitude":37.2321,"longitude":-113.352,"elevation":3438,"start_year":2012,"is_icao":false},{"name":"Leominster (Sholan Farm)","state":"MA","code":"mle newa","affiliation":"NEWA in Massachusetts","affiliation_url":"","latitude":42.4875,"longitude":-71.7756,"elevation":720,"start_year":2015,"is_icao":false},{"name":"Leslie","state":"MI","code":"les miwx","affiliation":"Michigan State University","affiliation_url":"","latitude":42.4714,"longitude":-84.4575,"elevation":290,"start_year":2015,"is_icao":false},{"name":"Lewisburg (Fero Vineyards)","state":"PA","code":"pa_lew newa","affiliation":"State Horticultural Association of Pennsylvania","affiliation_url":"","latitude":40.997,"longitude":-76.8863,"elevation":565,"start_year":2016,"is_icao":false},{"name":"Lewiston","state":"ME","code":"klew icao","affiliation":"National Weather Service","affiliation_url":"https://www.weather.gov/","latitude":44.05,"longitude":-70.2833,"elevation":288,"start_year":1996,"is_icao":true},{"name":"Lexington","state":"KY","code":"klex icao","affiliation":"National Weather Service","affiliation_url":"https://www.weather.gov/","latitude":38.0408,"longitude":-84.6058,"elevation":980,"start_year":1996,"is_icao":true},{"name":"Lima","state":"OH","code":"kaoh icao","affiliation":"National Weather Service","affiliation_url":"https://www.weather.gov/","latitude":40.7075,"longitude":-84.0272,"elevation":975,"start_year":1998,"is_icao":true},{"name":"Lincoln Airport","state":"NE","code":"klnk icao","affiliation":"National Weather Service","affiliation_url":"https://www.weather.gov/","latitude":40.8508,"longitude":-96.7475,"elevation":1190,"start_year":1996,"is_icao":true},{"name":"Lincoln Point (South Shore Farms)","state":"UT","code":"42.02 ucc","affiliation":"The Utah Climate Center at Utah State University","affiliation_url":"","latitude":40.135,"longitude":-111.82,"elevation":4608,"start_year":2012,"is_icao":false},{"name":"Lindon (Stratton Fruit)","state":"UT","code":"42.28 ucc","affiliation":"The Utah Climate Center at Utah State University","affiliation_url":"","latitude":40.3342,"longitude":-111.71,"elevation":4745,"start_year":2012,"is_icao":false},{"name":"Linwood","state":"MI","code":"lin miwx","affiliation":"Michigan State University","affiliation_url":"","latitude":43.7199,"longitude":-84.0275,"elevation":188,"start_year":2015,"is_icao":false},{"name":"Litchfield (Wilson)","state":"NH","code":"nh_litc nwon","affiliation":"","affiliation_url":"","latitude":42.8237,"longitude":-71.4751,"elevation":124,"start_year":2020,"is_icao":false},{"name":"Lodi (Lamoreaux)","state":"NY","code":"lol newa","affiliation":"NEWA in New York","affiliation_url":"","latitude":42.5766,"longitude":-76.8584,"elevation":853,"start_year":2012,"is_icao":false},{"name":"Logan","state":"NJ","code":"3527 njwx","affiliation":"Rutgers New Jersey Weather Network","affiliation_url":"https://www.njweather.org/","latitude":39.8044,"longitude":-75.3656,"elevation":10,"start_year":2016,"is_icao":false},{"name":"Logan Cache AP","state":"UT","code":"klgu icao","affiliation":"National Weather Service","affiliation_url":"https://www.weather.gov/","latitude":41.7872,"longitude":-111.8533,"elevation":4454,"start_year":1996,"is_icao":true},{"name":"Londonderry","state":"NH","code":"nh_lon newa","affiliation":"Sunnycrest Farm","affiliation_url":"","latitude":42.846,"longitude":-71.3993,"elevation":420,"start_year":2021,"is_icao":false},{"name":"Lone Rock","state":"WI","code":"klnr icao","affiliation":"National Weather Service","affiliation_url":"https://www.weather.gov/","latitude":43.2119,"longitude":-90.1814,"elevation":717,"start_year":1996,"is_icao":true},{"name":"Loudon (Grandpa's Farm)","state":"NH","code":"nh_lou newa","affiliation":"UNH Extension Service","affiliation_url":"","latitude":43.36,"longitude":-71.46,"elevation":741,"start_year":2021,"is_icao":false},{"name":"Ludington","state":"MI","code":"ldt miwx","affiliation":"Michigan State University","affiliation_url":"","latitude":43.9043,"longitude":-86.3798,"elevation":199,"start_year":2015,"is_icao":false},{"name":"Lumberton","state":"NC","code":"klbt icao","affiliation":"National Weather Service","affiliation_url":"https://www.weather.gov/","latitude":34.6081,"longitude":-79.0592,"elevation":121,"start_year":1998,"is_icao":true},{"name":"Lynchburg","state":"VA","code":"klyh icao","affiliation":"National Weather Service","affiliation_url":"https://www.weather.gov/","latitude":37.3208,"longitude":-79.2067,"elevation":940,"start_year":1996,"is_icao":true},{"name":"Lyndhurst (NJMC)","state":"NJ","code":"111 njwx","affiliation":"Rutgers New Jersey Weather Network","affiliation_url":"https://www.njweather.org/","latitude":40.7842,"longitude":-74.1046,"elevation":0,"start_year":2014,"is_icao":false},{"name":"Lyndonville","state":"NY","code":"lyn newa","affiliation":"NEWA in New York","affiliation_url":"","latitude":43.3266,"longitude":-78.388,"elevation":460,"start_year":2001,"is_icao":false},{"name":"Lyons","state":"GA","code":"ga_lyon nwon","affiliation":"University of Georgia","affiliation_url":"","latitude":32.0185,"longitude":-82.2201,"elevation":208,"start_year":2020,"is_icao":false},{"name":"Madison","state":"WI","code":"kmsn icao","affiliation":"National Weather Service","affiliation_url":"https://www.weather.gov/","latitude":43.1406,"longitude":-89.3453,"elevation":860,"start_year":1996,"is_icao":true},{"name":"Malone","state":"WI","code":"wi_mal newa","affiliation":"NEWA in Wisconsin","affiliation_url":"","latitude":43.8825,"longitude":-88.3419,"elevation":838,"start_year":2018,"is_icao":false},{"name":"Malone (Bilow Farms)","state":"NY","code":"mbf newa","affiliation":"NEWA in New York","affiliation_url":"","latitude":44.8478,"longitude":-74.1533,"elevation":1260,"start_year":2016,"is_icao":false},{"name":"Manassas","state":"VA","code":"khef icao","affiliation":"National Weather Service","affiliation_url":"https://www.weather.gov/","latitude":38.7214,"longitude":-77.5153,"elevation":192,"start_year":1996,"is_icao":true},{"name":"Manchester","state":"NH","code":"kmht icao","affiliation":"National Weather Service","affiliation_url":"https://www.weather.gov/","latitude":42.9333,"longitude":-71.4383,"elevation":225,"start_year":1996,"is_icao":true},{"name":"Mannington","state":"NJ","code":"3529 njwx","affiliation":"Rutgers New Jersey Weather Network","affiliation_url":"https://www.njweather.org/","latitude":39.6294,"longitude":-75.3592,"elevation":49,"start_year":2016,"is_icao":false},{"name":"Manorville","state":"NY","code":"man newa","affiliation":"Cornell Cooperative Extension Suffolk County","affiliation_url":"http://ccesuffolk.org/agriculture","latitude":40.8606,"longitude":-72.8219,"elevation":44,"start_year":2014,"is_icao":false},{"name":"Mansfield","state":"NJ","code":"3398 njwx","affiliation":"Rutgers New Jersey Weather Network","affiliation_url":"https://www.njweather.org/","latitude":40.0778,"longitude":-74.75,"elevation":21,"start_year":2011,"is_icao":false},{"name":"Mansfield","state":"OH","code":"kmfd icao","affiliation":"National Weather Service","affiliation_url":"https://www.weather.gov/","latitude":40.8203,"longitude":-82.5178,"elevation":1241,"start_year":1996,"is_icao":true},{"name":"Marlboro","state":"NY","code":"mar newa","affiliation":"NEWA in New York","affiliation_url":"","latitude":41.589,"longitude":-73.99,"elevation":383,"start_year":2002,"is_icao":false},{"name":"Marshallton (West Bradford)","state":"PA","code":"DWBD deos","affiliation":"","affiliation_url":"","latitude":39.9428,"longitude":-75.7169,"elevation":335,"start_year":2011,"is_icao":false},{"name":"Marshfield","state":"WI","code":"kmfi icao","affiliation":"National Weather Service","affiliation_url":"https://www.weather.gov/","latitude":44.6381,"longitude":-90.1875,"elevation":1255,"start_year":1996,"is_icao":true},{"name":"Marshfield ARS","state":"WI","code":"mar miwx","affiliation":"Michigan State University","affiliation_url":"","latitude":44.7603,"longitude":-90.0978,"elevation":626,"start_year":2021,"is_icao":false},{"name":"Marthasville","state":"MO","code":"mo_mar newa","affiliation":"NEWA in Missouri","affiliation_url":"","latitude":38.6373,"longitude":-91.0638,"elevation":100,"start_year":2019,"is_icao":false},{"name":"Martinsburg","state":"WV","code":"kmrb icao","affiliation":"National Weather Service","affiliation_url":"https://www.weather.gov/","latitude":39.4019,"longitude":-77.9844,"elevation":534,"start_year":1996,"is_icao":true},{"name":"Massena","state":"NY","code":"kmss icao","affiliation":"National Weather Service","affiliation_url":"https://www.weather.gov/","latitude":44.9358,"longitude":-74.8456,"elevation":214,"start_year":1996,"is_icao":true},{"name":"Mattituck (Dorsett)","state":"NY","code":"mtd newa","affiliation":"Cornell Cooperative Extension Suffolk County","affiliation_url":"http://ccesuffolk.org/agriculture","latitude":41.0193,"longitude":-72.5246,"elevation":52,"start_year":2013,"is_icao":false},{"name":"Mauston (Northwoods)","state":"WI","code":"wi_mau newa","affiliation":"NEWA in Wisconsin","affiliation_url":"","latitude":43.7898,"longitude":-90.1378,"elevation":934,"start_year":2018,"is_icao":false},{"name":"McBain","state":"MI","code":"mcb miwx","affiliation":"Michigan State University","affiliation_url":"","latitude":44.1861,"longitude":-85.1251,"elevation":359,"start_year":2015,"is_icao":false},{"name":"McDonald","state":"PA","code":"pa_mcd newa","affiliation":"State Horticultural Association of Pennsylvania","affiliation_url":"","latitude":40.4054,"longitude":-80.2383,"elevation":1055,"start_year":2018,"is_icao":false},{"name":"McGuire AFB","state":"NJ","code":"kwri icao","affiliation":"National Weather Service","affiliation_url":"https://www.weather.gov/","latitude":40.02,"longitude":-74.6,"elevation":148,"start_year":2001,"is_icao":true},{"name":"McMillan/Newberry","state":"MI","code":"mml miwx","affiliation":"Michigan State University","affiliation_url":"","latitude":46.3134,"longitude":-85.6487,"elevation":254,"start_year":2015,"is_icao":false},{"name":"Mears","state":"MI","code":"mea miwx","affiliation":"Michigan State University","affiliation_url":"","latitude":43.6834,"longitude":-86.4107,"elevation":751,"start_year":2019,"is_icao":false},{"name":"Mecosta","state":"MI","code":"mct miwx","affiliation":"Michigan State University","affiliation_url":"","latitude":43.5653,"longitude":-85.2449,"elevation":305,"start_year":2015,"is_icao":false},{"name":"Medina","state":"NY","code":"med newa","affiliation":"Ledge Rock Farms LLC","affiliation_url":"","latitude":43.2,"longitude":-78.3928,"elevation":600,"start_year":2013,"is_icao":false},{"name":"Mendon","state":"MI","code":"men miwx","affiliation":"Michigan State University","affiliation_url":"","latitude":41.9833,"longitude":-85.4333,"elevation":256,"start_year":2015,"is_icao":false},{"name":"Mequon (Barthel)","state":"WI","code":"wi_meq newa","affiliation":"NEWA in Wisconsin","affiliation_url":"","latitude":43.242,"longitude":-88.0299,"elevation":809,"start_year":2018,"is_icao":false},{"name":"Meredith","state":"NH","code":"nh_mer newa","affiliation":"University of New Hampshire Cooperative Extension","affiliation_url":"https://extension.unh.edu/","latitude":43.6767,"longitude":-71.471,"elevation":642,"start_year":2016,"is_icao":false},{"name":"Merrill (Helenes)","state":"WI","code":"wi_mer newa","affiliation":"Helene's Hilltop Orchard","affiliation_url":"http://www.heleneshilltoporchard.com/","latitude":45.1587,"longitude":-89.7256,"elevation":1350,"start_year":2021,"is_icao":false},{"name":"Merrimack","state":"NH","code":"nh_merr nwon","affiliation":" University of New Hampshire Cooperative Extension ","affiliation_url":"https://extension.unh.edu/","latitude":42.8466,"longitude":-71.548,"elevation":280,"start_year":2020,"is_icao":false},{"name":"Middleborough","state":"MA","code":"ma_midd nwon","affiliation":"Bridgewater State University","affiliation_url":"","latitude":41.9358,"longitude":-70.8394,"elevation":43,"start_year":2021,"is_icao":false},{"name":"Middlefield","state":"OH","code":"oh_mid newa","affiliation":"NEWA in Ohio","affiliation_url":"","latitude":41.3884,"longitude":-81.0208,"elevation":1007,"start_year":2018,"is_icao":false},{"name":"Middlefield (UConn)","state":"CT","code":"ct_mid newa","affiliation":"NEWA in Connecticut","affiliation_url":"https://www.extension.uconn.edu","latitude":41.494,"longitude":-72.7262,"elevation":364,"start_year":2015,"is_icao":false},{"name":"Middletown Harrisburg","state":"PA","code":"kmdt icao","affiliation":"National Weather Service","affiliation_url":"https://www.weather.gov/","latitude":40.1961,"longitude":-76.7725,"elevation":312,"start_year":1996,"is_icao":true},{"name":"Milford","state":"IA","code":"ia_milf nwon","affiliation":"Little Sioux Orchard","affiliation_url":"","latitude":43.27,"longitude":-95.26,"elevation":1443,"start_year":2021,"is_icao":false},{"name":"Milford","state":"NJ","code":"nj_mil newa","affiliation":"NEWA in New Jersey","affiliation_url":"","latitude":40.5859,"longitude":-75.1578,"elevation":123,"start_year":2015,"is_icao":false},{"name":"Milford (Hamilton)","state":"NH","code":"nh_milf nwon","affiliation":"UNH Cooperative Extension","affiliation_url":"","latitude":42.7992,"longitude":-71.6461,"elevation":398,"start_year":2020,"is_icao":false},{"name":"Milford Municipal AP","state":"UT","code":"kmlf icao","affiliation":"National Weather Service","affiliation_url":"https://www.weather.gov/","latitude":38.4167,"longitude":-113.0167,"elevation":5040,"start_year":1996,"is_icao":true},{"name":"Mills River","state":"NC","code":"nc_mill nwon","affiliation":"North Carolina State University","affiliation_url":"","latitude":35.4292,"longitude":-82.5632,"elevation":2152,"start_year":2020,"is_icao":false},{"name":"Millville","state":"NJ","code":"kmiv icao","affiliation":"National Weather Service","affiliation_url":"https://www.weather.gov/","latitude":39.37,"longitude":-75.07,"elevation":70,"start_year":1996,"is_icao":true},{"name":"Milton","state":"NH","code":"nh_mlt newa","affiliation":"McKenzie's Farm","affiliation_url":"","latitude":43.4614,"longitude":-70.9834,"elevation":640,"start_year":2021,"is_icao":false},{"name":"Milton","state":"NY","code":"mil newa","affiliation":"NEWA in New York","affiliation_url":"","latitude":41.6781,"longitude":-73.9847,"elevation":394,"start_year":2021,"is_icao":false},{"name":"Milton (Crist)","state":"NY","code":"mlc newa","affiliation":"NEWA in New York","affiliation_url":"","latitude":41.6493,"longitude":-73.9854,"elevation":501,"start_year":2019,"is_icao":false},{"name":"Milwaukee","state":"WI","code":"kmke icao","affiliation":"National Weather Service","affiliation_url":"https://www.weather.gov/","latitude":42.955,"longitude":-87.9044,"elevation":670,"start_year":1996,"is_icao":true},{"name":"Minneapolis","state":"MN","code":"kmsp icao","affiliation":"National Weather Service","affiliation_url":"https://www.weather.gov/","latitude":44.8831,"longitude":-93.2289,"elevation":872,"start_year":1996,"is_icao":true},{"name":"Moab Canyonland AP","state":"UT","code":"kcny icao","affiliation":"National Weather Service","affiliation_url":"https://www.weather.gov/","latitude":38.75,"longitude":-109.7628,"elevation":4560,"start_year":1997,"is_icao":true},{"name":"Monroe","state":"NC","code":"keqy icao","affiliation":"National Weather Service","affiliation_url":"https://www.weather.gov/","latitude":35.0169,"longitude":-80.6206,"elevation":679,"start_year":1999,"is_icao":true},{"name":"Montauk","state":"NY","code":"kmtp icao","affiliation":"National Weather Service","affiliation_url":"https://www.weather.gov/","latitude":41.0731,"longitude":-71.9233,"elevation":7,"start_year":1998,"is_icao":true},{"name":"Montgomery","state":"NY","code":"kmgj icao","affiliation":"National Weather Service","affiliation_url":"https://www.weather.gov/","latitude":41.5092,"longitude":-74.265,"elevation":365,"start_year":1997,"is_icao":true},{"name":"Monticello","state":"NY","code":"kmsv icao","affiliation":"National Weather Service","affiliation_url":"https://www.weather.gov/","latitude":41.7,"longitude":-74.8,"elevation":1407,"start_year":1996,"is_icao":true},{"name":"Montour Falls","state":"NY","code":"mon newa","affiliation":"NEWA in New York","affiliation_url":"","latitude":42.3529,"longitude":-76.8258,"elevation":816,"start_year":2018,"is_icao":false},{"name":"Montpelier","state":"VT","code":"kmpv icao","affiliation":"National Weather Service","affiliation_url":"https://www.weather.gov/","latitude":44.2,"longitude":-72.57,"elevation":1126,"start_year":1996,"is_icao":true},{"name":"Montpelier (VT Compost)","state":"VT","code":"vmo newa","affiliation":"NEWA in Vermont","affiliation_url":"","latitude":44.2734,"longitude":-72.557,"elevation":983,"start_year":2018,"is_icao":false},{"name":"Moorestown","state":"NJ","code":"3533 njwx","affiliation":"Rutgers New Jersey Weather Network","affiliation_url":"https://www.njweather.org/","latitude":39.9833,"longitude":-74.8957,"elevation":71,"start_year":2016,"is_icao":false},{"name":"Moravian Falls (Lowe)","state":"NC","code":"nc_morv nwon","affiliation":"NC Cooperative Extension- Wilkes County Center","affiliation_url":"http://wilkes.ces.ncsu.edu","latitude":36.0367,"longitude":-81.2039,"elevation":2290,"start_year":2020,"is_icao":false},{"name":"Moreland","state":"OH","code":"oh_mor newa","affiliation":"NEWA in Ohio","affiliation_url":"https://cfaes.osu.edu/","latitude":40.7118,"longitude":-81.9704,"elevation":995,"start_year":2017,"is_icao":false},{"name":"Morganton (Apple Hill Orchard)","state":"NC","code":"nc_mor newa","affiliation":"North Carolina Apple Growers Association","affiliation_url":"","latitude":35.6684,"longitude":-81.6603,"elevation":1421,"start_year":2016,"is_icao":false},{"name":"Morristown","state":"NJ","code":"kmmu icao","affiliation":"National Weather Service","affiliation_url":"https://www.weather.gov/","latitude":40.8,"longitude":-74.42,"elevation":187,"start_year":2008,"is_icao":true},{"name":"Morrisville","state":"VT","code":"kmvl icao","affiliation":"National Weather Service","affiliation_url":"https://www.weather.gov/","latitude":44.53,"longitude":-72.61,"elevation":768,"start_year":1996,"is_icao":true},{"name":"Mount Holly","state":"NJ","code":"kvay icao","affiliation":"National Weather Service","affiliation_url":"https://www.weather.gov/","latitude":39.94,"longitude":-74.84,"elevation":52,"start_year":1997,"is_icao":true},{"name":"Mount Horeb (Atoms to Apples)","state":"WI","code":"wi_mho newa","affiliation":"Atoms to Apples","affiliation_url":"","latitude":42.9639,"longitude":-89.6963,"elevation":1066,"start_year":2020,"is_icao":false},{"name":"Mount Pleasant","state":"MI","code":"mou miwx","affiliation":"Michigan State University","affiliation_url":"","latitude":43.5759,"longitude":-84.7737,"elevation":794,"start_year":2018,"is_icao":false},{"name":"Mt Horeb","state":"WI","code":"wi_mth newa","affiliation":"NEWA in Wisconsin","affiliation_url":"","latitude":42.8665,"longitude":-89.8313,"elevation":1024,"start_year":2018,"is_icao":false},{"name":"Mt Horeb (Running Hills)","state":"WI","code":"wi_mtho nwon","affiliation":"Running Hills Farm","affiliation_url":"http://www.runninghillsfarm.com/","latitude":43.0502,"longitude":-89.7708,"elevation":1050,"start_year":2019,"is_icao":false},{"name":"Munger","state":"MI","code":"mgr miwx","affiliation":"Michigan State University","affiliation_url":"","latitude":43.5617,"longitude":-83.7541,"elevation":171,"start_year":2015,"is_icao":false},{"name":"Muskegon (AP)","state":"MI","code":"kmkg icao","affiliation":"National Weather Service","affiliation_url":"https://www.weather.gov/","latitude":43.1711,"longitude":-86.2367,"elevation":625,"start_year":1996,"is_icao":true},{"name":"Nantucket","state":"MA","code":"kack icao","affiliation":"National Weather Service","affiliation_url":"https://www.weather.gov/","latitude":41.2531,"longitude":-70.0608,"elevation":45,"start_year":1996,"is_icao":true},{"name":"Nasewaupee","state":"WI","code":"nsw miwx","affiliation":"Enviroweather at Michigan State University and University of Wisconsin-Madison","affiliation_url":"http://cals.wisc.edu/","latitude":44.7597,"longitude":-87.5056,"elevation":689,"start_year":2015,"is_icao":false},{"name":"Nashua","state":"NH","code":"kash icao","affiliation":"National Weather Service","affiliation_url":"https://www.weather.gov/","latitude":42.7824,"longitude":-71.5141,"elevation":200,"start_year":2005,"is_icao":true},{"name":"NE Philadelphia","state":"PA","code":"kpne icao","affiliation":"National Weather Service","affiliation_url":"https://www.weather.gov/","latitude":40.08,"longitude":-75.02,"elevation":100,"start_year":1996,"is_icao":true},{"name":"New Bedford","state":"MA","code":"kewb icao","affiliation":"National Weather Service","affiliation_url":"https://www.weather.gov/","latitude":41.6764,"longitude":-70.9583,"elevation":80,"start_year":1996,"is_icao":true},{"name":"New Brunswick","state":"NJ","code":"1101 njwx","affiliation":"Rutgers New Jersey Weather Network","affiliation_url":"https://www.njweather.org/","latitude":40.4727,"longitude":-74.4225,"elevation":21,"start_year":2010,"is_icao":false},{"name":"New Castle (DMV)","state":"DE","code":"DDMV deos","affiliation":"","affiliation_url":"","latitude":39.6758,"longitude":-75.6303,"elevation":49,"start_year":2011,"is_icao":false},{"name":"New Era","state":"MI","code":"ner miwx","affiliation":"Michigan State University","affiliation_url":"","latitude":43.5609,"longitude":-86.3777,"elevation":883,"start_year":2019,"is_icao":false},{"name":"New London","state":"NH","code":"nh_nlo newa","affiliation":"University of New Hampshire Cooperative Extension","affiliation_url":"https://extension.unh.edu/","latitude":43.4208,"longitude":-71.9913,"elevation":1286,"start_year":2019,"is_icao":false},{"name":"New Paris (Boyer)","state":"PA","code":"pa_npa newa","affiliation":"State Horticultural Association of Pennsylvania","affiliation_url":"","latitude":40.1053,"longitude":-78.6295,"elevation":1556,"start_year":2013,"is_icao":false},{"name":"New York (Battery Park City Authority)","state":"NY","code":"ny_batt nwon","affiliation":"Battery Park City Authority","affiliation_url":"https://bpca.ny.gov/","latitude":40.7161,"longitude":-74.0152,"elevation":13,"start_year":2020,"is_icao":false},{"name":"Newark","state":"NJ","code":"kewr icao","affiliation":"National Weather Service","affiliation_url":"https://www.weather.gov/","latitude":40.6825,"longitude":-74.1694,"elevation":7,"start_year":1996,"is_icao":true},{"name":"Newark (White Clay Creek)","state":"DE","code":"DWCC deos","affiliation":"","affiliation_url":"","latitude":39.7292,"longitude":-75.7311,"elevation":279,"start_year":2010,"is_icao":false},{"name":"Newark Ag Farm","state":"DE","code":"DAGF deos","affiliation":"","affiliation_url":"","latitude":39.6695,"longitude":-75.7503,"elevation":106,"start_year":2004,"is_icao":false},{"name":"Newburgh Stewart Field","state":"NY","code":"kswf icao","affiliation":"National Weather Service","affiliation_url":"https://www.weather.gov/","latitude":41.5,"longitude":-74.1,"elevation":581,"start_year":2013,"is_icao":true},{"name":"Newport","state":"NH","code":"nh_new newa","affiliation":"Bascom Road Blueberry Farm","affiliation_url":"","latitude":43.3527,"longitude":-72.2106,"elevation":1023,"start_year":2021,"is_icao":false},{"name":"Newport","state":"RI","code":"kuuu icao","affiliation":"National Weather Service","affiliation_url":"https://www.weather.gov/","latitude":41.5333,"longitude":-71.2833,"elevation":155,"start_year":1996,"is_icao":true},{"name":"Newport News","state":"VA","code":"kphf icao","affiliation":"National Weather Service","affiliation_url":"https://www.weather.gov/","latitude":37.1319,"longitude":-76.4931,"elevation":42,"start_year":1996,"is_icao":true},{"name":"Niagara","state":"WI","code":"wi_nia newa","affiliation":"Pleasant View Orchard and Bakery","affiliation_url":"http://pleasantvieworchard.com/?i=1","latitude":45.7256,"longitude":-87.8967,"elevation":949,"start_year":2020,"is_icao":false},{"name":"Niagara Falls","state":"NY","code":"kiag icao","affiliation":"National Weather Service","affiliation_url":"https://www.weather.gov/","latitude":43.1072,"longitude":-78.9453,"elevation":585,"start_year":1996,"is_icao":true},{"name":"Norfolk","state":"VA","code":"korf icao","affiliation":"National Weather Service","affiliation_url":"https://www.weather.gov/","latitude":36.9033,"longitude":-76.1922,"elevation":30,"start_year":1996,"is_icao":true},{"name":"North Adams","state":"MA","code":"kaqw icao","affiliation":"National Weather Service","affiliation_url":"https://www.weather.gov/","latitude":42.6958,"longitude":-73.1708,"elevation":654,"start_year":1996,"is_icao":true},{"name":"North East (Side Hill)","state":"PA","code":"pa_nsh newa","affiliation":"Lake Erie Regional Grape Program","affiliation_url":"https://lergp.cce.cornell.edu/","latitude":42.1743,"longitude":-79.8709,"elevation":991,"start_year":2018,"is_icao":false},{"name":"North East (State Line)","state":"PA","code":"pa_nsl newa","affiliation":"Lake Erie Regional Grape Program","affiliation_url":"https://lergp.cce.cornell.edu/","latitude":42.2168,"longitude":-79.7703,"elevation":1044,"start_year":2018,"is_icao":false},{"name":"North East Escarpment","state":"PA","code":"nee newa","affiliation":"State Horticultural Association of Pennsylvania","affiliation_url":"","latitude":42.181,"longitude":-79.8517,"elevation":1029,"start_year":2011,"is_icao":false},{"name":"North East Lab","state":"PA","code":"nel newa","affiliation":"State Horticultural Association of Pennsylvania","affiliation_url":"","latitude":42.2283,"longitude":-79.8543,"elevation":680,"start_year":2011,"is_icao":false},{"name":"North Haverhill","state":"NH","code":"nh_nha newa","affiliation":"University of New Hampshire Cooperative Extension","affiliation_url":"https://extension.unh.edu/","latitude":44.0837,"longitude":-71.9665,"elevation":982,"start_year":2017,"is_icao":false},{"name":"North Stonington","state":"CT","code":"ct_nsto nwon","affiliation":"","affiliation_url":"","latitude":41.4479,"longitude":-71.9182,"elevation":382,"start_year":2022,"is_icao":false},{"name":"North Windham","state":"CT","code":"ct_nwi newa","affiliation":"NEWA in Connecticut","affiliation_url":"https://www.extension.uconn.edu","latitude":41.7216,"longitude":-72.1675,"elevation":301,"start_year":2014,"is_icao":false},{"name":"Northboro","state":"MA","code":"ma_nort nwon","affiliation":"NEWA in Massachusetts","affiliation_url":"","latitude":42.3459,"longitude":-71.6779,"elevation":611,"start_year":2008,"is_icao":false},{"name":"Northbridge","state":"MA","code":"mnb newa","affiliation":"NEWA in Massachusetts","affiliation_url":"","latitude":42.1517,"longitude":-71.6801,"elevation":444,"start_year":2015,"is_icao":false},{"name":"Northford","state":"CT","code":"ct_nor newa","affiliation":"NEWA in Connecticut","affiliation_url":"","latitude":41.4049,"longitude":-72.786,"elevation":283,"start_year":2017,"is_icao":false},{"name":"Northport","state":"MI","code":"nth miwx","affiliation":"Michigan State University","affiliation_url":"","latitude":45.1356,"longitude":-85.6508,"elevation":774,"start_year":2015,"is_icao":false},{"name":"Northport (Richters)","state":"NY","code":"npt newa","affiliation":"Cornell Cooperative Extension Suffolk County","affiliation_url":"http://ccesuffolk.org/agriculture","latitude":40.8847,"longitude":-73.2944,"elevation":213,"start_year":2014,"is_icao":false},{"name":"Norwood","state":"MA","code":"kowd icao","affiliation":"National Weather Service","affiliation_url":"https://www.weather.gov/","latitude":42.1908,"longitude":-71.1736,"elevation":50,"start_year":1996,"is_icao":true},{"name":"Nottingham (Park)","state":"PA","code":"DNOT deos","affiliation":"","affiliation_url":"","latitude":39.7417,"longitude":-76.0461,"elevation":440,"start_year":2011,"is_icao":false},{"name":"NYC-Central Park","state":"NY","code":"knyc icao","affiliation":"National Weather Service","affiliation_url":"https://www.weather.gov/","latitude":40.7789,"longitude":-73.9692,"elevation":130,"start_year":1999,"is_icao":true},{"name":"NYC-JFK Airport","state":"NY","code":"kjfk icao","affiliation":"National Weather Service","affiliation_url":"https://www.weather.gov/","latitude":40.6386,"longitude":-73.7622,"elevation":11,"start_year":1996,"is_icao":true},{"name":"NYC-LaGuardia Airport","state":"NY","code":"klga icao","affiliation":"National Weather Service","affiliation_url":"https://www.weather.gov/","latitude":40.7794,"longitude":-73.8803,"elevation":11,"start_year":1996,"is_icao":true},{"name":"Oak Harbor","state":"OH","code":"oh_oakh nwon","affiliation":"Witt Orchards","affiliation_url":"","latitude":41.5814,"longitude":-83.0882,"elevation":568,"start_year":2020,"is_icao":false},{"name":"Oceana","state":"VA","code":"kntu icao","affiliation":"National Weather Service","affiliation_url":"https://www.weather.gov/","latitude":36.8167,"longitude":-76.0333,"elevation":23,"start_year":1996,"is_icao":true},{"name":"Oceanport","state":"NJ","code":"3481 njwx","affiliation":"Rutgers New Jersey Weather Network","affiliation_url":"https://www.njweather.org/","latitude":40.3113,"longitude":-74.0147,"elevation":16,"start_year":2016,"is_icao":false},{"name":"Ogden Hinkley AP","state":"UT","code":"kogd icao","affiliation":"National Weather Service","affiliation_url":"https://www.weather.gov/","latitude":41.1961,"longitude":-112.0114,"elevation":4470,"start_year":1996,"is_icao":true},{"name":"Old Mission","state":"MI","code":"old miwx","affiliation":"Michigan State University","affiliation_url":"","latitude":44.932,"longitude":-85.4996,"elevation":219,"start_year":2015,"is_icao":false},{"name":"Olympic Lake","state":"VA","code":"va_oly newa","affiliation":"NEWA in Virginia","affiliation_url":"","latitude":37.9467,"longitude":-78.4955,"elevation":541,"start_year":2017,"is_icao":false},{"name":"Omaha","state":"NE","code":"koma icao","affiliation":"National Weather Service","affiliation_url":"https://www.weather.gov/","latitude":41.3103,"longitude":-95.8992,"elevation":982,"start_year":1996,"is_icao":true},{"name":"Onekama Twp/Bear Lake","state":"MI","code":"obl miwx","affiliation":"Michigan State University","affiliation_url":"","latitude":44.4165,"longitude":-86.2131,"elevation":810,"start_year":2020,"is_icao":false},{"name":"Orange","state":"MA","code":"kore icao","affiliation":"National Weather Service","affiliation_url":"https://www.weather.gov/","latitude":42.57,"longitude":-72.2911,"elevation":555,"start_year":1996,"is_icao":true},{"name":"Oshkosh","state":"WI","code":"kosh icao","affiliation":"National Weather Service","affiliation_url":"https://www.weather.gov/","latitude":43.9844,"longitude":-88.5569,"elevation":782,"start_year":1996,"is_icao":true},{"name":"Oshtemo","state":"MI","code":"ost miwx","affiliation":"Michigan State University","affiliation_url":"","latitude":42.295,"longitude":-85.7014,"elevation":292,"start_year":2015,"is_icao":false},{"name":"Ossipee","state":"NH","code":"nh_oss newa","affiliation":"University of New Hampshire Cooperative Extension","affiliation_url":"https://extension.unh.edu/","latitude":43.6836,"longitude":-71.135,"elevation":851,"start_year":2016,"is_icao":false},{"name":"Oswego Lake","state":"NJ","code":"317 njwx","affiliation":"Rutgers New Jersey Weather Network","affiliation_url":"https://www.njweather.org/","latitude":39.7154,"longitude":-74.5142,"elevation":15,"start_year":2010,"is_icao":false},{"name":"Ovid (Hosmer)","state":"NY","code":"ovi newa","affiliation":"NEWA in New York","affiliation_url":"","latitude":42.6856,"longitude":-76.7452,"elevation":590,"start_year":2010,"is_icao":false},{"name":"Paeonian Springs (Twin Notch)","state":"VA","code":"va_pae newa","affiliation":"NEWA in Virginia","affiliation_url":"","latitude":39.1689,"longitude":-77.5839,"elevation":685,"start_year":2017,"is_icao":false},{"name":"Pataskala (Patton)","state":"OH","code":"oh_pata nwon","affiliation":"","affiliation_url":"","latitude":40.0503,"longitude":-82.6698,"elevation":1250,"start_year":2021,"is_icao":false},{"name":"Payson (Allred Farm)","state":"UT","code":"42.21 ucc","affiliation":"The Utah Climate Center at Utah State University","affiliation_url":"","latitude":40.0248,"longitude":-111.702,"elevation":4869,"start_year":2012,"is_icao":false},{"name":"Pemberville","state":"OH","code":"pemb oardc","affiliation":"The Ohio State University CFAES Weather System","affiliation_url":"https://www.oardc.ohio-state.edu/weather1/","latitude":41.42,"longitude":-83.443,"elevation":631,"start_year":2013,"is_icao":false},{"name":"Penn Yan","state":"NY","code":"kpeo icao","affiliation":"National Weather Service","affiliation_url":"https://www.weather.gov/","latitude":42.6425,"longitude":-77.0564,"elevation":903,"start_year":1997,"is_icao":true},{"name":"Pennsauken","state":"NJ","code":"3552 njwx","affiliation":"Rutgers New Jersey Weather Network","affiliation_url":"https://www.njweather.org/","latitude":39.9851,"longitude":-75.0391,"elevation":109,"start_year":2016,"is_icao":false},{"name":"Peoria","state":"IL","code":"kpia icao","affiliation":"National Weather Service","affiliation_url":"https://www.weather.gov/","latitude":40.6675,"longitude":-89.6839,"elevation":650,"start_year":2021,"is_icao":true},{"name":"Pequest","state":"NJ","code":"1029 njwx","affiliation":"Rutgers New Jersey Weather Network","affiliation_url":"https://www.njweather.org/","latitude":40.8383,"longitude":-74.9491,"elevation":135,"start_year":2010,"is_icao":false},{"name":"Perkinsville","state":"VT","code":"vt_perk nwon","affiliation":"NEWA in Vermont","affiliation_url":"","latitude":43.3728,"longitude":-72.4726,"elevation":1188,"start_year":2019,"is_icao":false},{"name":"Perry","state":"OH","code":"perr oardc","affiliation":"The Ohio State University CFAES Weather System","affiliation_url":"https://www.oardc.ohio-state.edu/weather1/","latitude":41.7603,"longitude":-81.1411,"elevation":706,"start_year":2017,"is_icao":false},{"name":"Perry (Sumida Farm)","state":"UT","code":"42.06 ucc","affiliation":"The Utah Climate Center at Utah State University","affiliation_url":"","latitude":41.4488,"longitude":-112.036,"elevation":4356,"start_year":2012,"is_icao":false},{"name":"Peru","state":"NY","code":"per newa","affiliation":"NEWA in New York","affiliation_url":"","latitude":44.5667,"longitude":-73.5128,"elevation":370,"start_year":2008,"is_icao":false},{"name":"Peru (Dimock Farms)","state":"NY","code":"pdf newa","affiliation":"NEWA in New York","affiliation_url":"","latitude":44.607,"longitude":-73.5396,"elevation":371,"start_year":2016,"is_icao":false},{"name":"Peru (Forrence 2)","state":"NY","code":"pfr newa","affiliation":"NEWA in New York","affiliation_url":"","latitude":44.5871,"longitude":-73.4466,"elevation":1647,"start_year":2021,"is_icao":false},{"name":"Peru (Forrence)","state":"NY","code":"pfo newa","affiliation":"NEWA in New York","affiliation_url":"","latitude":44.5775,"longitude":-73.5463,"elevation":383,"start_year":2019,"is_icao":false},{"name":"Peru (Northern Orchard)","state":"NY","code":"pno newa","affiliation":"NEWA in New York","affiliation_url":"","latitude":44.561,"longitude":-73.5362,"elevation":459,"start_year":2016,"is_icao":false},{"name":"Petoskey","state":"MI","code":"pky miwx","affiliation":"Michigan State University","affiliation_url":"","latitude":45.3287,"longitude":-84.9933,"elevation":800,"start_year":2018,"is_icao":false},{"name":"Phelps","state":"NY","code":"phe newa","affiliation":"NEWA in New York","affiliation_url":"","latitude":42.9774,"longitude":-77.0434,"elevation":558,"start_year":2015,"is_icao":false},{"name":"Philadelphia","state":"PA","code":"kphl icao","affiliation":"National Weather Service","affiliation_url":"https://www.weather.gov/","latitude":39.88,"longitude":-75.25,"elevation":63,"start_year":1996,"is_icao":true},{"name":"Phillipston","state":"MA","code":"mph newa","affiliation":"Red Apple Farm","affiliation_url":"http://redapplefarm.com/","latitude":42.5808,"longitude":-72.1461,"elevation":1183,"start_year":2015,"is_icao":false},{"name":"Pigeon","state":"MI","code":"pig miwx","affiliation":"Michigan State University","affiliation_url":"","latitude":43.8992,"longitude":-83.2667,"elevation":187,"start_year":2015,"is_icao":false},{"name":"Piketon","state":"OH","code":"pike oardc","affiliation":"The Ohio State University CFAES Weather System","affiliation_url":"https://www.oardc.ohio-state.edu/weather1/","latitude":39.0681,"longitude":-83.0144,"elevation":578,"start_year":2009,"is_icao":false},{"name":"Piney Hollow","state":"NJ","code":"263 njwx","affiliation":"Rutgers New Jersey Weather Network","affiliation_url":"https://www.njweather.org/","latitude":39.58,"longitude":-74.92,"elevation":30,"start_year":2011,"is_icao":false},{"name":"Piney Mountain","state":"PA","code":"pa_pin newa","affiliation":"State Horticultural Association of Pennsylvania","affiliation_url":"","latitude":39.9777,"longitude":-77.3397,"elevation":1217,"start_year":2013,"is_icao":false},{"name":"Pittsburgh","state":"PA","code":"kpit icao","affiliation":"National Weather Service","affiliation_url":"https://www.weather.gov/","latitude":40.3547,"longitude":-79.9217,"elevation":1248,"start_year":1996,"is_icao":true},{"name":"Pittsfield","state":"MA","code":"kpsf icao","affiliation":"National Weather Service","affiliation_url":"https://www.weather.gov/","latitude":42.4272,"longitude":-73.2892,"elevation":1194,"start_year":1999,"is_icao":true},{"name":"Pittstown","state":"NJ","code":"289 njwx","affiliation":"Rutgers New Jersey Weather Network","affiliation_url":"https://www.njweather.org/","latitude":40.5612,"longitude":-74.961,"elevation":183,"start_year":2010,"is_icao":false},{"name":"Plainfield","state":"NH","code":"nh_pla newa","affiliation":"University of New Hampshire Cooperative Extension","affiliation_url":"https://extension.unh.edu/","latitude":43.5837,"longitude":-72.3496,"elevation":387,"start_year":2017,"is_icao":false},{"name":"Plattsburgh (Bubbins Dairy)","state":"NY","code":"pbd newa","affiliation":"NEWA in New York","affiliation_url":"","latitude":44.7612,"longitude":-73.4356,"elevation":133,"start_year":2016,"is_icao":false},{"name":"Plattsburgh (Carter Farms)","state":"NY","code":"pcf newa","affiliation":"NEWA in New York","affiliation_url":"","latitude":44.7787,"longitude":-73.4465,"elevation":144,"start_year":2016,"is_icao":false},{"name":"Pleasant View (Thinnes Orchard)","state":"UT","code":"42.24 ucc","affiliation":"The Utah Climate Center at Utah State University","affiliation_url":"","latitude":41.316,"longitude":-111.992,"elevation":4409,"start_year":2012,"is_icao":false},{"name":"Plymouth","state":"MA","code":"kpym icao","affiliation":"National Weather Service","affiliation_url":"https://www.weather.gov/","latitude":41.9097,"longitude":-70.7294,"elevation":149,"start_year":1996,"is_icao":true},{"name":"Plymouth (Log Cabin)","state":"WI","code":"wi_ply newa","affiliation":"Log Cabin Orchards LLC","affiliation_url":"http://www.logcabinorchard.com/","latitude":43.715,"longitude":-87.9926,"elevation":882,"start_year":2018,"is_icao":false},{"name":"Plympton","state":"MA","code":"mpl newa","affiliation":"Sauchuk Farm","affiliation_url":"http://www.sauchukfarm.com/","latitude":41.9674,"longitude":-70.8411,"elevation":50,"start_year":2018,"is_icao":false},{"name":"Point Breeze","state":"NY","code":"ptb newa","affiliation":"NEWA in New York","affiliation_url":"","latitude":43.355,"longitude":-78.19,"elevation":91,"start_year":2015,"is_icao":false},{"name":"Poplar Grove","state":"IL","code":"il_pgr newa","affiliation":"NEWA in Illinois","affiliation_url":"","latitude":42.3913,"longitude":-88.8009,"elevation":916,"start_year":2015,"is_icao":false},{"name":"Portland","state":"NY","code":"por newa","affiliation":"Lake Erie Regional Grape Program","affiliation_url":"https://lergp.cce.cornell.edu/","latitude":42.3764,"longitude":-79.4894,"elevation":739,"start_year":2010,"is_icao":false},{"name":"Portland (LERGP West)","state":"NY","code":"ny_port nwon","affiliation":"Lake Erie Regional Grape Program","affiliation_url":"https://lergp.cce.cornell.edu/","latitude":42.3725,"longitude":-79.487,"elevation":770,"start_year":2020,"is_icao":false},{"name":"Poughkeepsie","state":"NY","code":"kpou icao","affiliation":"National Weather Service","affiliation_url":"https://www.weather.gov/","latitude":41.6267,"longitude":-73.8842,"elevation":166,"start_year":1996,"is_icao":true},{"name":"Preston","state":"MN","code":"mn_pre newa","affiliation":"Minnesota Apple Growers Association","affiliation_url":"","latitude":43.6825,"longitude":-92.0761,"elevation":1088,"start_year":2015,"is_icao":false},{"name":"Price Carbon County AP","state":"UT","code":"kpuc icao","affiliation":"National Weather Service","affiliation_url":"https://www.weather.gov/","latitude":39.6092,"longitude":-110.7547,"elevation":5921,"start_year":1996,"is_icao":true},{"name":"Princeton (Terhune)","state":"NJ","code":"nj_pri newa","affiliation":"NEWA in New Jersey","affiliation_url":"","latitude":40.3218,"longitude":-74.7292,"elevation":186,"start_year":2015,"is_icao":false},{"name":"Providence","state":"RI","code":"kpvd icao","affiliation":"National Weather Service","affiliation_url":"https://www.weather.gov/","latitude":41.7167,"longitude":-71.4333,"elevation":60,"start_year":1996,"is_icao":true},{"name":"Provincetown","state":"MA","code":"kpvc icao","affiliation":"National Weather Service","affiliation_url":"https://www.weather.gov/","latitude":42.0719,"longitude":-70.2211,"elevation":8,"start_year":1996,"is_icao":true},{"name":"Putney","state":"VT","code":"vpu newa","affiliation":"University of Vermont","affiliation_url":"https://www.uvm.edu","latitude":42.991,"longitude":-72.5421,"elevation":715,"start_year":2010,"is_icao":false},{"name":"Quaker City","state":"OH","code":"oh_qua newa","affiliation":"NEWA in Ohio","affiliation_url":"","latitude":39.9083,"longitude":-81.3507,"elevation":855,"start_year":2019,"is_icao":false},{"name":"Quantico","state":"VA","code":"knyg icao","affiliation":"National Weather Service","affiliation_url":"https://www.weather.gov/","latitude":38.5,"longitude":-77.3,"elevation":10,"start_year":1996,"is_icao":true},{"name":"Quincy Airport","state":"IL","code":"kuin icao","affiliation":"National Weather Service","affiliation_url":"https://www.weather.gov/","latitude":39.9369,"longitude":-91.1919,"elevation":769,"start_year":1996,"is_icao":true},{"name":"Racine","state":"WI","code":"krac icao","affiliation":"National Weather Service","affiliation_url":"https://www.weather.gov/","latitude":42.7611,"longitude":-87.8136,"elevation":674,"start_year":1998,"is_icao":true},{"name":"Raleigh-Durham","state":"NC","code":"krdu icao","affiliation":"National Weather Service","affiliation_url":"https://www.weather.gov/","latitude":35.8922,"longitude":-78.7819,"elevation":415,"start_year":1996,"is_icao":true},{"name":"Ransomville","state":"NY","code":"loc newa","affiliation":"Lake Erie Regional Grape Program","affiliation_url":"https://lergp.cce.cornell.edu/","latitude":43.1897,"longitude":-78.9075,"elevation":387,"start_year":2006,"is_icao":false},{"name":"Reading","state":"PA","code":"krdg icao","affiliation":"National Weather Service","affiliation_url":"https://www.weather.gov/","latitude":40.3667,"longitude":-75.9667,"elevation":341,"start_year":1996,"is_icao":true},{"name":"Red Hook","state":"NY","code":"red newa","affiliation":"NEWA in New York","affiliation_url":"","latitude":42.0078,"longitude":-73.8521,"elevation":230,"start_year":2005,"is_icao":false},{"name":"Reeman/Fremont","state":"MI","code":"rfw miwx","affiliation":"Michigan State University","affiliation_url":"","latitude":43.4524,"longitude":-86.0307,"elevation":837,"start_year":2019,"is_icao":false},{"name":"Rehoboth Beach (Boardwalk)","state":"DE","code":"DRHB deos","affiliation":"","affiliation_url":"","latitude":38.7208,"longitude":-75.0767,"elevation":12,"start_year":2008,"is_icao":false},{"name":"Rhinelander","state":"WI","code":"krhi icao","affiliation":"National Weather Service","affiliation_url":"https://www.weather.gov/","latitude":45.6314,"longitude":-89.4822,"elevation":1624,"start_year":1996,"is_icao":true},{"name":"Rhinelander ARS","state":"WI","code":"rhn miwx","affiliation":"Michigan State University","affiliation_url":"","latitude":45.6546,"longitude":-89.2682,"elevation":488,"start_year":2021,"is_icao":false},{"name":"Richland Center (Oakwood)","state":"WI","code":"wi_ric newa","affiliation":"NEWA in Wisconsin","affiliation_url":"","latitude":43.3199,"longitude":-90.2408,"elevation":1084,"start_year":2018,"is_icao":false},{"name":"Richmond","state":"MA","code":"ma_rich nwon","affiliation":"UMass Extension","affiliation_url":"https://ag.umass.edu/","latitude":42.4016,"longitude":-73.3214,"elevation":1227,"start_year":2020,"is_icao":false},{"name":"Richmond","state":"VA","code":"kric icao","affiliation":"National Weather Service","affiliation_url":"https://www.weather.gov/","latitude":37.505,"longitude":-77.3203,"elevation":164,"start_year":1996,"is_icao":true},{"name":"Richville/Frankenmuth","state":"MI","code":"rvl miwx","affiliation":"Michigan State University","affiliation_url":"","latitude":43.3995,"longitude":-83.698,"elevation":639,"start_year":2015,"is_icao":false},{"name":"Ripley","state":"NY","code":"rip newa","affiliation":"NEWA in New York","affiliation_url":"","latitude":42.2659,"longitude":-79.7041,"elevation":758,"start_year":2012,"is_icao":false},{"name":"Ripley (Escarpment)","state":"NY","code":"rie newa","affiliation":"Lake Erie Regional Grape Program","affiliation_url":"https://lergp.cce.cornell.edu/","latitude":42.2469,"longitude":-79.7302,"elevation":899,"start_year":2018,"is_icao":false},{"name":"Ripley (State Line)","state":"NY","code":"rsl newa","affiliation":"Lake Erie Regional Grape Program","affiliation_url":"https://lergp.cce.cornell.edu/","latitude":42.2483,"longitude":-79.7528,"elevation":750,"start_year":2018,"is_icao":false},{"name":"River Heights (Zollinger Fruit Farm)","state":"UT","code":"42.27 ucc","affiliation":"The Utah Climate Center at Utah State University","affiliation_url":"","latitude":41.7254,"longitude":-111.806,"elevation":4669,"start_year":2012,"is_icao":false},{"name":"Riverhead (LIHREC)","state":"NY","code":"riv newa","affiliation":"Cornell University Agricultural Experiment Station","affiliation_url":"https://cuaes.cals.cornell.edu/","latitude":40.9622,"longitude":-72.7161,"elevation":112,"start_year":2012,"is_icao":false},{"name":"Riverhead (MCV)","state":"NY","code":"rvm newa","affiliation":"NEWA in New York","affiliation_url":"","latitude":40.98,"longitude":-72.58,"elevation":54,"start_year":2013,"is_icao":false},{"name":"Roanoke","state":"VA","code":"kroa icao","affiliation":"National Weather Service","affiliation_url":"https://www.weather.gov/","latitude":37.3169,"longitude":-79.9742,"elevation":1175,"start_year":1996,"is_icao":true},{"name":"Rochester","state":"MN","code":"krst icao","affiliation":"National Weather Service","affiliation_url":"https://www.weather.gov/","latitude":43.9042,"longitude":-92.4917,"elevation":1304,"start_year":1996,"is_icao":true},{"name":"Rochester","state":"NH","code":"kdaw icao","affiliation":"National Weather Service","affiliation_url":"https://www.weather.gov/","latitude":43.2781,"longitude":-70.9222,"elevation":323,"start_year":2000,"is_icao":true},{"name":"Rochester","state":"NY","code":"kroc icao","affiliation":"National Weather Service","affiliation_url":"https://www.weather.gov/","latitude":43.1167,"longitude":-77.6767,"elevation":533,"start_year":1996,"is_icao":true},{"name":"Rochester (Ela)","state":"WI","code":"wi_roc newa","affiliation":"NEWA in Wisconsin","affiliation_url":"","latitude":42.7421,"longitude":-88.2342,"elevation":201,"start_year":2018,"is_icao":false},{"name":"Rock Springs","state":"PA","code":"pa_rsp newa","affiliation":"State Horticultural Association of Pennsylvania","affiliation_url":"","latitude":40.714,"longitude":-77.9488,"elevation":1213,"start_year":2014,"is_icao":false},{"name":"Rockford","state":"IL","code":"krfd icao","affiliation":"National Weather Service","affiliation_url":"https://www.weather.gov/","latitude":42.1928,"longitude":-89.0931,"elevation":730,"start_year":1996,"is_icao":true},{"name":"Rogers (Peace Valley)","state":"OH","code":"oh_rog newa","affiliation":"Peace Valley Orchards, Inc.","affiliation_url":"http://www.pvoinc.com/","latitude":40.818,"longitude":-80.5884,"elevation":1060,"start_year":2017,"is_icao":false},{"name":"Romeo","state":"MI","code":"rom miwx","affiliation":"Michigan State University","affiliation_url":"","latitude":42.7768,"longitude":-83.0211,"elevation":249,"start_year":2015,"is_icao":false},{"name":"Romulus (Buttonwood Grove)","state":"NY","code":"rbg newa","affiliation":"Buttonwood Grove Winery","affiliation_url":"https://www.buttonwoodgrove.com/","latitude":42.7331,"longitude":-76.77,"elevation":460,"start_year":2015,"is_icao":false},{"name":"Romulus (Thirsty Owl)","state":"NY","code":"rom newa","affiliation":"NEWA in New York","affiliation_url":"","latitude":42.6971,"longitude":-76.7464,"elevation":485,"start_year":2013,"is_icao":false},{"name":"Rustburg (Crown Orchard)","state":"VA","code":"va_rus newa","affiliation":"NEWA in Virginia","affiliation_url":"","latitude":37.2587,"longitude":-79.0844,"elevation":875,"start_year":2019,"is_icao":false},{"name":"Rutland","state":"VT","code":"krut icao","affiliation":"National Weather Service","affiliation_url":"https://www.weather.gov/","latitude":43.53,"longitude":-72.95,"elevation":784,"start_year":1996,"is_icao":true},{"name":"S. Glastonbury","state":"CT","code":"ct_sgl newa","affiliation":"NEWA in Connecticut","affiliation_url":"https://www.extension.uconn.edu","latitude":41.652,"longitude":-72.5764,"elevation":350,"start_year":2014,"is_icao":false},{"name":"S. Glastonbury (Belltown Orchards)","state":"CT","code":"ct_sgo newa","affiliation":"Belltown Hill Orchards","affiliation_url":"","latitude":41.6458,"longitude":-72.5769,"elevation":528,"start_year":2021,"is_icao":false},{"name":"Saginaw (AP)","state":"MI","code":"kmbs icao","affiliation":"National Weather Service","affiliation_url":"https://www.weather.gov/","latitude":43.5331,"longitude":-84.0797,"elevation":660,"start_year":1996,"is_icao":true},{"name":"Salisbury","state":"MD","code":"ksby icao","affiliation":"National Weather Service","affiliation_url":"https://www.weather.gov/","latitude":38.3406,"longitude":-75.5103,"elevation":48,"start_year":1996,"is_icao":true},{"name":"Salt Lake City Intl AP","state":"UT","code":"kslc icao","affiliation":"National Weather Service","affiliation_url":"https://www.weather.gov/","latitude":40.7781,"longitude":-111.9694,"elevation":4225,"start_year":1996,"is_icao":true},{"name":"Sanbornton","state":"NH","code":"nh_sanb nwon","affiliation":"Surowiec Farm","affiliation_url":"","latitude":43.5067,"longitude":-71.6011,"elevation":954,"start_year":2021,"is_icao":false},{"name":"Sandtown (CSWMC)","state":"DE","code":"DSND deos","affiliation":"","affiliation_url":"","latitude":39.0378,"longitude":-75.7297,"elevation":64,"start_year":2005,"is_icao":false},{"name":"Sandusky","state":"MI","code":"sdk miwx","affiliation":"Michigan State University","affiliation_url":"","latitude":43.4556,"longitude":-82.8375,"elevation":237,"start_year":2015,"is_icao":false},{"name":"Santaquin (South Ridge Farms)","state":"UT","code":"42.01 ucc","affiliation":"The Utah Climate Center at Utah State University","affiliation_url":"","latitude":39.9633,"longitude":-111.799,"elevation":4900,"start_year":2012,"is_icao":false},{"name":"Santaquin East (Wall)","state":"UT","code":"42.33 ucc","affiliation":"The Utah Climate Center at Utah State University","affiliation_url":"","latitude":39.9968,"longitude":-111.771,"elevation":4770,"start_year":2013,"is_icao":false},{"name":"Santaquin West (CHF North)","state":"UT","code":"42.26 ucc","affiliation":"The Utah Climate Center at Utah State University","affiliation_url":"","latitude":39.9867,"longitude":-111.803,"elevation":4859,"start_year":2012,"is_icao":false},{"name":"Saranac Lake","state":"NY","code":"kslk icao","affiliation":"National Weather Service","affiliation_url":"https://www.weather.gov/","latitude":44.3853,"longitude":-74.2067,"elevation":1663,"start_year":1996,"is_icao":true},{"name":"Saratoga Springs (Hanehan)","state":"NY","code":"sar newa","affiliation":"NEWA in New York","affiliation_url":"","latitude":43.0676,"longitude":-73.684,"elevation":342,"start_year":2016,"is_icao":false},{"name":"Sault Ste Marie (AP)","state":"MI","code":"kanj icao","affiliation":"National Weather Service","affiliation_url":"https://www.weather.gov/","latitude":46.4794,"longitude":-84.3572,"elevation":722,"start_year":1998,"is_icao":true},{"name":"Scott Township","state":"PA","code":"pa_sco newa","affiliation":"Lakeland Orchard and Cidery","affiliation_url":"https://www.lakelandorchard.com/Â ","latitude":41.5721,"longitude":-75.5932,"elevation":1750,"start_year":2014,"is_icao":false},{"name":"Scottdale","state":"MI","code":"scd miwx","affiliation":"Michigan State University","affiliation_url":"","latitude":42.0242,"longitude":-86.4303,"elevation":204,"start_year":2015,"is_icao":false},{"name":"Sea Girt","state":"NJ","code":"287 njwx","affiliation":"Rutgers New Jersey Weather Network","affiliation_url":"https://www.njweather.org/","latitude":40.1203,"longitude":-74.0327,"elevation":2,"start_year":2011,"is_icao":false},{"name":"Seaford (Oak Grove)","state":"DE","code":"DSEA deos","affiliation":"","affiliation_url":"","latitude":38.6525,"longitude":-75.7036,"elevation":43,"start_year":2009,"is_icao":false},{"name":"Shafer","state":"MN","code":"mn_sha newa","affiliation":"Minnesota Apple Growers Association","affiliation_url":"","latitude":45.3527,"longitude":-92.753,"elevation":961,"start_year":2015,"is_icao":false},{"name":"Sharon","state":"MA","code":"ma_shar nwon","affiliation":"UMass Extension","affiliation_url":"https://ag.umass.edu/","latitude":42.0996,"longitude":-71.2106,"elevation":267,"start_year":2021,"is_icao":false},{"name":"Shawangunk","state":"NY","code":"sha newa","affiliation":"NEWA in New York","affiliation_url":"","latitude":41.6368,"longitude":-74.226,"elevation":370,"start_year":2018,"is_icao":false},{"name":"Sheboygan","state":"WI","code":"ksbm icao","affiliation":"National Weather Service","affiliation_url":"https://www.weather.gov/","latitude":43.7694,"longitude":-87.8506,"elevation":746,"start_year":1996,"is_icao":true},{"name":"Shelburne","state":"VT","code":"vsl newa","affiliation":"NEWA in Vermont","affiliation_url":"","latitude":44.352,"longitude":-73.2656,"elevation":193,"start_year":2020,"is_icao":false},{"name":"Shelby (East)","state":"MI","code":"sbe miwx","affiliation":"Michigan State University","affiliation_url":"","latitude":43.5781,"longitude":-86.3342,"elevation":837,"start_year":2019,"is_icao":false},{"name":"Sherburne","state":"NY","code":"sher nysm","affiliation":"NYS Mesonet at UAlbany","affiliation_url":"http://www.nysmesonet.org","latitude":42.6403,"longitude":-75.4834,"elevation":353,"start_year":2016,"is_icao":false},{"name":"Sheridan","state":"NY","code":"ny_shrd nwon","affiliation":"Lake Erie Regional Grape Program","affiliation_url":"https://lergp.cce.cornell.edu/","latitude":42.5021,"longitude":-79.2051,"elevation":750,"start_year":2021,"is_icao":false},{"name":"Sheridan","state":"NY","code":"she newa","affiliation":"Lake Erie Regional Grape Program","affiliation_url":"https://lergp.cce.cornell.edu/","latitude":42.5021,"longitude":-79.2051,"elevation":750,"start_year":2011,"is_icao":false},{"name":"Shoreham (Champlain)","state":"VT","code":"vsc newa","affiliation":"University of Vermont","affiliation_url":"https://www.uvm.edu","latitude":43.8574,"longitude":-73.3486,"elevation":301,"start_year":2019,"is_icao":false},{"name":"Sicklerville","state":"NJ","code":"1034 njwx","affiliation":"Rutgers New Jersey Weather Network","affiliation_url":"https://www.njweather.org/","latitude":39.7638,"longitude":-74.9785,"elevation":45,"start_year":2010,"is_icao":false},{"name":"Silver Creek","state":"NY","code":"sil newa","affiliation":"Lake Erie Regional Grape Program","affiliation_url":"https://lergp.cce.cornell.edu/","latitude":42.5425,"longitude":-79.1967,"elevation":608,"start_year":2011,"is_icao":false},{"name":"Silver Creek (Double A Vineyards)","state":"NY","code":"ny_silv nwon","affiliation":"Double A Vineyards","affiliation_url":"http://www.Doubleavineyards.com","latitude":42.5147,"longitude":-79.1622,"elevation":540,"start_year":2020,"is_icao":false},{"name":"Sioux Falls","state":"SD","code":"kfsd icao","affiliation":"National Weather Service","affiliation_url":"https://www.weather.gov/","latitude":43.5778,"longitude":-96.7539,"elevation":1428,"start_year":1996,"is_icao":true},{"name":"Sister Bay/Liberty Grove","state":"WI","code":"srb miwx","affiliation":"Enviroweather at Michigan State University and University of Wisconsin-Madison","affiliation_url":"http://cals.wisc.edu/","latitude":45.2191,"longitude":-87.0662,"elevation":692,"start_year":2015,"is_icao":false},{"name":"Smyrna (DASEF)","state":"DE","code":"DSMY deos","affiliation":"","affiliation_url":"","latitude":39.2767,"longitude":-75.5806,"elevation":23,"start_year":2008,"is_icao":false},{"name":"Sodus","state":"NY","code":"sod newa","affiliation":"NEWA in New York","affiliation_url":"","latitude":43.1735,"longitude":-77.0798,"elevation":450,"start_year":2011,"is_icao":false},{"name":"Sodus (Cherry Lawn)","state":"NY","code":"scl newa","affiliation":"NEWA in New York","affiliation_url":"","latitude":43.233,"longitude":-77.001,"elevation":371,"start_year":2018,"is_icao":false},{"name":"Sodus (Lake)","state":"NY","code":"sdl newa","affiliation":"Cornell Cooperative Extension Lake Ontario Fruit Program","affiliation_url":"https://lof.cce.cornell.edu/","latitude":43.2524,"longitude":-77.0624,"elevation":373,"start_year":2021,"is_icao":false},{"name":"Somerville","state":"NJ","code":"ksmq icao","affiliation":"National Weather Service","affiliation_url":"https://www.weather.gov/","latitude":40.62,"longitude":-74.67,"elevation":105,"start_year":1999,"is_icao":true},{"name":"South Bristol","state":"NY","code":"sbri nysm","affiliation":"NYS Mesonet at UAlbany","affiliation_url":"http://www.nysmesonet.org","latitude":42.7522,"longitude":-77.3593,"elevation":350,"start_year":2016,"is_icao":false},{"name":"South Burlington","state":"VT","code":"vsb newa","affiliation":"University of Vermont","affiliation_url":"https://www.uvm.edu","latitude":44.4308,"longitude":-73.2042,"elevation":233,"start_year":2010,"is_icao":false},{"name":"South Burlington","state":"VT","code":"vt_sbur nwon","affiliation":"University of Vermont","affiliation_url":"https://www.uvm.edu","latitude":44.4308,"longitude":-73.2042,"elevation":233,"start_year":2020,"is_icao":false},{"name":"South Charleston (Western ARS)","state":"OH","code":"west oardc","affiliation":"The Ohio State University CFAES Weather System","affiliation_url":"https://www.oardc.ohio-state.edu/weather1/","latitude":39.8633,"longitude":-83.6721,"elevation":1124,"start_year":2009,"is_icao":false},{"name":"South Deerfield","state":"MA","code":"ma_sdee nwon","affiliation":"NEWA in Massachusetts","affiliation_url":"","latitude":42.4797,"longitude":-72.5794,"elevation":131,"start_year":2010,"is_icao":false},{"name":"South Harrison","state":"NJ","code":"29 njwx","affiliation":"Rutgers New Jersey Weather Network","affiliation_url":"https://www.njweather.org/","latitude":39.7124,"longitude":-75.2808,"elevation":141,"start_year":2011,"is_icao":false},{"name":"South Haven","state":"MI","code":"shv miwx","affiliation":"Michigan State University","affiliation_url":"","latitude":42.3579,"longitude":-86.2894,"elevation":189,"start_year":2015,"is_icao":false},{"name":"South Hero","state":"VT","code":"vt_sher nwon","affiliation":"University of Vermont","affiliation_url":"https://www.uvm.edu","latitude":44.6339,"longitude":-73.2956,"elevation":180,"start_year":2020,"is_icao":false},{"name":"South Woodstock MS","state":"CT","code":"ct_swo newa","affiliation":"NEWA in Connecticut","affiliation_url":"https://www.extension.uconn.edu","latitude":41.9287,"longitude":-71.9562,"elevation":421,"start_year":2015,"is_icao":false},{"name":"Southington (Shuttle Meadow)","state":"CT","code":"ct_ssm newa","affiliation":"NEWA in Connecticut","affiliation_url":"","latitude":41.6369,"longitude":-72.839,"elevation":450,"start_year":2014,"is_icao":false},{"name":"Southington (Sunnymount)","state":"CT","code":"ct_ssu newa","affiliation":"NEWA in Connecticut","affiliation_url":"","latitude":41.559,"longitude":-72.9433,"elevation":650,"start_year":2014,"is_icao":false},{"name":"Southold","state":"NY","code":"sout nysm","affiliation":"NYS Mesonet at UAlbany","affiliation_url":"http://www.nysmesonet.org","latitude":41.0401,"longitude":-72.4659,"elevation":9,"start_year":2017,"is_icao":false},{"name":"Sparta","state":"MI","code":"spo miwx","affiliation":"Michigan State University","affiliation_url":"","latitude":43.1167,"longitude":-85.756,"elevation":267,"start_year":2015,"is_icao":false},{"name":"Sparta (20m Tower)","state":"MI","code":"spt miwx","affiliation":"Michigan State University","affiliation_url":"","latitude":43.1166,"longitude":-85.756,"elevation":876,"start_year":2017,"is_icao":false},{"name":"Sparta (North)","state":"MI","code":"spn miwx","affiliation":"Michigan State University","affiliation_url":"","latitude":43.1771,"longitude":-85.7378,"elevation":886,"start_year":2019,"is_icao":false},{"name":"Spooner ARS","state":"WI","code":"pnr miwx","affiliation":"Michigan State University","affiliation_url":"","latitude":45.827,"longitude":-91.8614,"elevation":626,"start_year":2021,"is_icao":false},{"name":"Sprakers","state":"NY","code":"spra nysm","affiliation":"NYS Mesonet at UAlbany","affiliation_url":"http://www.nysmesonet.org","latitude":42.8698,"longitude":-74.51,"elevation":200,"start_year":2015,"is_icao":false},{"name":"Spring Valley","state":"WI","code":"wi_spv newa","affiliation":"Maple Leaf Orchard, LLC","affiliation_url":"","latitude":44.8074,"longitude":-92.329,"elevation":1122,"start_year":2020,"is_icao":false},{"name":"Springfield","state":"VT","code":"kvsf icao","affiliation":"National Weather Service","affiliation_url":"https://www.weather.gov/","latitude":43.3436,"longitude":-72.5178,"elevation":578,"start_year":1996,"is_icao":true},{"name":"St Cloud","state":"MN","code":"kstc icao","affiliation":"National Weather Service","affiliation_url":"https://www.weather.gov/","latitude":45.5433,"longitude":-94.0514,"elevation":1032,"start_year":1996,"is_icao":true},{"name":"St. Louis","state":"MO","code":"kstl icao","affiliation":"National Weather Service","affiliation_url":"https://www.weather.gov/","latitude":38.7525,"longitude":-90.3736,"elevation":531,"start_year":1996,"is_icao":true},{"name":"Standale/Walker","state":"MI","code":"stn miwx","affiliation":"Michigan State University","affiliation_url":"","latitude":42.9557,"longitude":-85.7521,"elevation":226,"start_year":2015,"is_icao":false},{"name":"Staunton","state":"VA","code":"kshd icao","affiliation":"National Weather Service","affiliation_url":"https://www.weather.gov/","latitude":38.2636,"longitude":-78.8964,"elevation":1201,"start_year":1996,"is_icao":true},{"name":"Stephenson","state":"MI","code":"stv miwx","affiliation":"Michigan State University","affiliation_url":"","latitude":45.4082,"longitude":-87.6096,"elevation":685,"start_year":2015,"is_icao":false},{"name":"Stephentown","state":"NY","code":"step nysm","affiliation":"NYS Mesonet at UAlbany","affiliation_url":"http://www.nysmesonet.org","latitude":42.5262,"longitude":-73.3591,"elevation":290,"start_year":2015,"is_icao":false},{"name":"Stockley (DHSS)","state":"DE","code":"DSTK deos","affiliation":"","affiliation_url":"","latitude":38.6294,"longitude":-75.3219,"elevation":33,"start_year":2007,"is_icao":false},{"name":"Storrs (Research Farm)","state":"CT","code":"ct_sto newa","affiliation":"NEWA in Connecticut","affiliation_url":"https://www.extension.uconn.edu","latitude":41.7941,"longitude":-72.2302,"elevation":669,"start_year":2015,"is_icao":false},{"name":"Stow","state":"MA","code":"mst newa","affiliation":"NEWA in Massachusetts","affiliation_url":"","latitude":42.4094,"longitude":-71.5139,"elevation":239,"start_year":2011,"is_icao":false},{"name":"Stow (Shelburne)","state":"MA","code":"msw newa","affiliation":"NEWA in Massachusetts","affiliation_url":"","latitude":42.4469,"longitude":-71.5011,"elevation":223,"start_year":2011,"is_icao":false},{"name":"Sturgeon Bay","state":"WI","code":"stb miwx","affiliation":"Enviroweather at Michigan State University and University of Wisconsin-Madison","affiliation_url":"http://cals.wisc.edu/","latitude":44.8935,"longitude":-87.3678,"elevation":738,"start_year":2015,"is_icao":false},{"name":"Sturgeon Bay/S. Door","state":"WI","code":"sdr miwx","affiliation":"Enviroweather at Michigan State University and University of Wisconsin-Madison","affiliation_url":"http://cals.wisc.edu/","latitude":44.779,"longitude":-87.3556,"elevation":696,"start_year":2016,"is_icao":false},{"name":"Sunnyslope","state":"ID","code":"43.01 ucc","affiliation":"The Utah Climate Center at Utah State University","affiliation_url":"","latitude":43.5853,"longitude":-116.77,"elevation":2635,"start_year":2014,"is_icao":false},{"name":"Sussex","state":"NJ","code":"kfwn icao","affiliation":"National Weather Service","affiliation_url":"https://www.weather.gov/","latitude":41.2003,"longitude":-74.6231,"elevation":421,"start_year":1998,"is_icao":true},{"name":"Syracuse","state":"NY","code":"ksyr icao","affiliation":"National Weather Service","affiliation_url":"https://www.weather.gov/","latitude":43.1092,"longitude":-76.1033,"elevation":410,"start_year":1996,"is_icao":true},{"name":"Tamworth (Whiteface Hollow)","state":"NH","code":"nh_tam newa","affiliation":"","affiliation_url":"","latitude":43.842,"longitude":-71.309,"elevation":790,"start_year":2021,"is_icao":false},{"name":"Taunton","state":"MA","code":"ktan icao","affiliation":"National Weather Service","affiliation_url":"https://www.weather.gov/","latitude":41.8756,"longitude":-71.0211,"elevation":43,"start_year":1997,"is_icao":true},{"name":"Taylorsville","state":"NC","code":"nc_tayl nwon","affiliation":"NC Cooperative Extension- Wilkes County Center","affiliation_url":"http://wilkes.ces.ncsu.edu","latitude":36.0164,"longitude":-81.1964,"elevation":1500,"start_year":2021,"is_icao":false},{"name":"Teterboro","state":"NJ","code":"kteb icao","affiliation":"National Weather Service","affiliation_url":"https://www.weather.gov/","latitude":40.85,"longitude":-74.0614,"elevation":9,"start_year":1996,"is_icao":true},{"name":"Thatcher","state":"UT","code":"42.07 ucc","affiliation":"The Utah Climate Center at Utah State University","affiliation_url":"","latitude":41.69,"longitude":-112.3,"elevation":4451,"start_year":2017,"is_icao":false},{"name":"Tintic (South Ridge Farm)","state":"UT","code":"42.20 ucc","affiliation":"The Utah Climate Center at Utah State University","affiliation_url":"","latitude":39.8724,"longitude":-112.135,"elevation":5859,"start_year":2012,"is_icao":false},{"name":"Tivoli","state":"NY","code":"tiv newa","affiliation":"Mead Orchards","affiliation_url":"http://meadorchards.com","latitude":42.0451,"longitude":-73.8528,"elevation":197,"start_year":2019,"is_icao":false},{"name":"Toledo","state":"OH","code":"ktol icao","affiliation":"National Weather Service","affiliation_url":"https://www.weather.gov/","latitude":41.5872,"longitude":-83.8056,"elevation":693,"start_year":1996,"is_icao":true},{"name":"Tolland","state":"CT","code":"ct_tol newa","affiliation":"NEWA in Connecticut","affiliation_url":"https://www.extension.uconn.edu","latitude":41.8655,"longitude":-72.3111,"elevation":425,"start_year":2014,"is_icao":false},{"name":"Toms River","state":"NJ","code":"3408 njwx","affiliation":"Rutgers New Jersey Weather Network","affiliation_url":"https://www.njweather.org/","latitude":39.9553,"longitude":-74.2078,"elevation":21,"start_year":2011,"is_icao":false},{"name":"Townsend (REC)","state":"DE","code":"DTOW deos","affiliation":"","affiliation_url":"","latitude":39.3911,"longitude":-75.7482,"elevation":69,"start_year":2005,"is_icao":false},{"name":"Traverse City (AP)","state":"MI","code":"ktvc icao","affiliation":"National Weather Service","affiliation_url":"https://www.weather.gov/","latitude":44.7408,"longitude":-85.5825,"elevation":618,"start_year":1996,"is_icao":true},{"name":"Traverse City (NWMHRS)","state":"MI","code":"nwm miwx","affiliation":"Michigan State University","affiliation_url":"","latitude":44.8831,"longitude":-85.6777,"elevation":247,"start_year":2015,"is_icao":false},{"name":"Trempealeau (Ecker)","state":"WI","code":"wi_tre newa","affiliation":"NEWA in Wisconsin","affiliation_url":"","latitude":44.0712,"longitude":-91.4927,"elevation":734,"start_year":2018,"is_icao":false},{"name":"Trenton","state":"NJ","code":"kttn icao","affiliation":"National Weather Service","affiliation_url":"https://www.weather.gov/","latitude":40.28,"longitude":-74.82,"elevation":194,"start_year":1996,"is_icao":true},{"name":"Tyngsboro","state":"MA","code":"mty newa","affiliation":"NEWA in Massachusetts","affiliation_url":"","latitude":42.6896,"longitude":-71.4249,"elevation":141,"start_year":2010,"is_icao":false},{"name":"Tyro","state":"VA","code":"va_tyro nwon","affiliation":"Virginia Polytechnic Institute and State University","affiliation_url":"http://grapepathology.org","latitude":37.8054,"longitude":-79.0293,"elevation":1054,"start_year":2021,"is_icao":false},{"name":"UMass Waltham Center","state":"MA","code":"mwa newa","affiliation":"UMass Extension","affiliation_url":"https://ag.umass.edu/","latitude":42.384,"longitude":-71.2123,"elevation":66,"start_year":2013,"is_icao":false},{"name":"Upper Deerfield","state":"NJ","code":"284 njwx","affiliation":"Rutgers New Jersey Weather Network","affiliation_url":"https://www.njweather.org/","latitude":39.5243,"longitude":-75.2009,"elevation":33,"start_year":2011,"is_icao":false},{"name":"Valatie","state":"NY","code":"vlt newa","affiliation":"NEWA in New York","affiliation_url":"","latitude":42.4358,"longitude":-73.6845,"elevation":306,"start_year":2015,"is_icao":false},{"name":"Vernal Municipal AP","state":"UT","code":"kvel icao","affiliation":"National Weather Service","affiliation_url":"https://www.weather.gov/","latitude":40.4428,"longitude":-109.5128,"elevation":5270,"start_year":1998,"is_icao":true},{"name":"Verona","state":"MI","code":"ver miwx","affiliation":"Michigan State University","affiliation_url":"","latitude":43.8132,"longitude":-82.8455,"elevation":231,"start_year":2015,"is_icao":false},{"name":"Verona (West Mad Ag Sta)","state":"WI","code":"wi_ver newa","affiliation":"NEWA in Wisconsin","affiliation_url":"","latitude":43.0606,"longitude":-89.5335,"elevation":1083,"start_year":2017,"is_icao":false},{"name":"Versailles","state":"KY","code":"ky_ver newa","affiliation":"Eckert's Orchards","affiliation_url":"","latitude":38,"longitude":-84.699,"elevation":950,"start_year":2016,"is_icao":false},{"name":"Versailles","state":"NY","code":"ver newa","affiliation":"Lake Erie Regional Grape Program","affiliation_url":"https://lergp.cce.cornell.edu/","latitude":42.5164,"longitude":-79.0269,"elevation":863,"start_year":2012,"is_icao":false},{"name":"Vineland","state":"NJ","code":"nj_vin newa","affiliation":"NEWA in New Jersey","affiliation_url":"","latitude":39.4977,"longitude":-74.9364,"elevation":115,"start_year":2019,"is_icao":false},{"name":"Vineyard Haven","state":"MA","code":"kmvy icao","affiliation":"National Weather Service","affiliation_url":"https://www.weather.gov/","latitude":41.3931,"longitude":-70.615,"elevation":68,"start_year":1996,"is_icao":true},{"name":"Voorheesville","state":"NY","code":"voor nysm","affiliation":"NYS Mesonet at UAlbany","affiliation_url":"http://www.nysmesonet.org","latitude":42.6524,"longitude":-73.9756,"elevation":115,"start_year":2016,"is_icao":false},{"name":"Wading River","state":"NY","code":"wad newa","affiliation":"NEWA in New York","affiliation_url":"","latitude":40.95,"longitude":-72.81,"elevation":107,"start_year":2013,"is_icao":false},{"name":"Wakefield","state":"VA","code":"kakq icao","affiliation":"National Weather Service","affiliation_url":"https://www.weather.gov/","latitude":36.9839,"longitude":-77.0072,"elevation":109,"start_year":1997,"is_icao":true},{"name":"Walden (Crist)","state":"NY","code":"wal newa","affiliation":"NEWA in New York","affiliation_url":"","latitude":41.5529,"longitude":-74.167,"elevation":445,"start_year":2017,"is_icao":false},{"name":"Wall Twp","state":"NJ","code":"3404 njwx","affiliation":"Rutgers New Jersey Weather Network","affiliation_url":"https://www.njweather.org/","latitude":40.1548,"longitude":-74.072,"elevation":7,"start_year":2011,"is_icao":false},{"name":"Wallingford","state":"CT","code":"ct_wal newa","affiliation":"NEWA in Connecticut","affiliation_url":"https://www.extension.uconn.edu","latitude":41.4497,"longitude":-72.8671,"elevation":249,"start_year":2014,"is_icao":false},{"name":"Wallkill","state":"NY","code":"wlk newa","affiliation":"NEWA in New York","affiliation_url":"","latitude":41.641,"longitude":-74.137,"elevation":500,"start_year":2018,"is_icao":false},{"name":"Wallops Island","state":"VA","code":"kwal icao","affiliation":"National Weather Service","affiliation_url":"https://www.weather.gov/","latitude":37.9372,"longitude":-75.4708,"elevation":46,"start_year":1996,"is_icao":true},{"name":"Walpole","state":"NH","code":"nh_wal newa","affiliation":"University of New Hampshire Cooperative Extension","affiliation_url":"https://extension.unh.edu/","latitude":43.0339,"longitude":-72.4302,"elevation":642,"start_year":2016,"is_icao":false},{"name":"Warwick (Park)","state":"PA","code":"DWWK deos","affiliation":"","affiliation_url":"","latitude":40.1647,"longitude":-75.7261,"elevation":407,"start_year":2011,"is_icao":false},{"name":"Washington","state":"DC","code":"kdca icao","affiliation":"National Weather Service","affiliation_url":"https://www.weather.gov/","latitude":38.8483,"longitude":-77.0342,"elevation":10,"start_year":1996,"is_icao":true},{"name":"Washington (Gadino Cellars)","state":"VA","code":"va_was newa","affiliation":"Mizuho Nita (VT) and Bill Gadino (Gadino Cellers)","affiliation_url":"","latitude":38.6887,"longitude":-78.1759,"elevation":681,"start_year":2016,"is_icao":false},{"name":"Water Mill","state":"NY","code":"wmi newa","affiliation":"NEWA in New York","affiliation_url":"","latitude":40.9111,"longitude":-72.3174,"elevation":15,"start_year":2009,"is_icao":false},{"name":"Water Mill (North)","state":"NY","code":"wmn newa","affiliation":"NEWA in New York","affiliation_url":"","latitude":40.92,"longitude":-72.34,"elevation":15,"start_year":2013,"is_icao":false},{"name":"Waterport (Orchard Dale)","state":"NY","code":"wtr newa","affiliation":"NEWA in New York","affiliation_url":"","latitude":43.35,"longitude":-78.19,"elevation":306,"start_year":2018,"is_icao":false},{"name":"Watertown","state":"NY","code":"kart icao","affiliation":"National Weather Service","affiliation_url":"https://www.weather.gov/","latitude":43.9922,"longitude":-76.0217,"elevation":318,"start_year":1996,"is_icao":true},{"name":"Watkins Glen","state":"NY","code":"wgl newa","affiliation":"","affiliation_url":"","latitude":42.38,"longitude":-76.93,"elevation":1100,"start_year":2020,"is_icao":false},{"name":"Waupaca","state":"WI","code":"wi_wau newa","affiliation":"NEWA in Wisconsin","affiliation_url":"","latitude":44.3499,"longitude":-89.1537,"elevation":914,"start_year":2019,"is_icao":false},{"name":"Wausau","state":"WI","code":"kauw icao","affiliation":"National Weather Service","affiliation_url":"https://www.weather.gov/","latitude":44.9289,"longitude":-89.6278,"elevation":1200,"start_year":1996,"is_icao":true},{"name":"Webster","state":"MN","code":"mn_web newa","affiliation":"Minnesota Apple Growers Association","affiliation_url":"","latitude":44.5404,"longitude":-93.3611,"elevation":1069,"start_year":2015,"is_icao":false},{"name":"Webster","state":"NY","code":"ny_webs nwon","affiliation":"Emergency Medical Service","affiliation_url":"","latitude":43.2054,"longitude":-77.4424,"elevation":514,"start_year":2021,"is_icao":false},{"name":"Wellsville","state":"NY","code":"kelz icao","affiliation":"National Weather Service","affiliation_url":"https://www.weather.gov/","latitude":42.1094,"longitude":-77.9919,"elevation":2124,"start_year":2000,"is_icao":true},{"name":"West Brookfield","state":"MA","code":"mwb newa","affiliation":"NEWA in Massachusetts","affiliation_url":"","latitude":42.2705,"longitude":-72.1698,"elevation":918,"start_year":2020,"is_icao":false},{"name":"West Cape May","state":"NJ","code":"261 njwx","affiliation":"Rutgers New Jersey Weather Network","affiliation_url":"https://www.njweather.org/","latitude":38.9422,"longitude":-74.9441,"elevation":5,"start_year":2011,"is_icao":false},{"name":"West Chester (GSC)","state":"PA","code":"DWCH deos","affiliation":"","affiliation_url":"","latitude":39.9586,"longitude":-75.585,"elevation":417,"start_year":2011,"is_icao":false},{"name":"West Deptford","state":"NJ","code":"3531 njwx","affiliation":"Rutgers New Jersey Weather Network","affiliation_url":"https://www.njweather.org/","latitude":39.8777,"longitude":-75.1388,"elevation":14,"start_year":2016,"is_icao":false},{"name":"West Grove (SECCRA)","state":"PA","code":"DSCR deos","affiliation":"","affiliation_url":"","latitude":39.8656,"longitude":-75.8464,"elevation":648,"start_year":2004,"is_icao":false},{"name":"West Jacksonport","state":"WI","code":"wjp miwx","affiliation":"Enviroweather at Michigan State University and University of Wisconsin-Madison","affiliation_url":"http://cals.wisc.edu/","latitude":45.01,"longitude":-87.2335,"elevation":728,"start_year":2015,"is_icao":false},{"name":"West Mountain (Wall)","state":"UT","code":"42.22 ucc","affiliation":"The Utah Climate Center at Utah State University","affiliation_url":"","latitude":40.0272,"longitude":-111.788,"elevation":4683,"start_year":2012,"is_icao":false},{"name":"West Mountain Center (McMullin)","state":"UT","code":"42.31 ucc","affiliation":"The Utah Climate Center at Utah State University","affiliation_url":"","latitude":40.0143,"longitude":-111.786,"elevation":4703,"start_year":2012,"is_icao":false},{"name":"West Mountain South (Orchard View)","state":"UT","code":"42.32 ucc","affiliation":"The Utah Climate Center at Utah State University","affiliation_url":"","latitude":39.9978,"longitude":-111.798,"elevation":4791,"start_year":2012,"is_icao":false},{"name":"West Olive","state":"MI","code":"weo miwx","affiliation":"Michigan State University","affiliation_url":"","latitude":42.9715,"longitude":-86.0765,"elevation":194,"start_year":2015,"is_icao":false},{"name":"Westfield","state":"MA","code":"mwe newa","affiliation":"NEWA in Massachusetts","affiliation_url":"","latitude":42.1851,"longitude":-72.765,"elevation":335,"start_year":2011,"is_icao":false},{"name":"Westfield","state":"NC","code":"nc_wes newa","affiliation":"Kordick Family Farm","affiliation_url":"http://www.kordickfamilyfarm.com","latitude":36.5166,"longitude":-80.4041,"elevation":1260,"start_year":2020,"is_icao":false},{"name":"Westfield","state":"NY","code":"wes newa","affiliation":"Lake Erie Regional Grape Program","affiliation_url":"https://lergp.cce.cornell.edu/","latitude":42.3414,"longitude":-79.573,"elevation":671,"start_year":2016,"is_icao":false},{"name":"Westfield Arpt","state":"MA","code":"kbaf icao","affiliation":"National Weather Service","affiliation_url":"https://www.weather.gov/","latitude":42.1578,"longitude":-72.7161,"elevation":271,"start_year":1996,"is_icao":true},{"name":"Westhampton Beach","state":"NY","code":"kfok icao","affiliation":"National Weather Service","affiliation_url":"https://www.weather.gov/","latitude":40.8436,"longitude":-72.6322,"elevation":67,"start_year":1996,"is_icao":true},{"name":"Wheeler Sack Field","state":"NY","code":"kgtb icao","affiliation":"National Weather Service","affiliation_url":"https://www.weather.gov/","latitude":44.05,"longitude":-75.7333,"elevation":702,"start_year":2006,"is_icao":true},{"name":"White Bear Lake","state":"MN","code":"mn_wbl newa","affiliation":"Minnesota Apple Growers Association","affiliation_url":"","latitude":45.1063,"longitude":-92.9551,"elevation":955,"start_year":2015,"is_icao":false},{"name":"White Plains","state":"NY","code":"khpn icao","affiliation":"National Weather Service","affiliation_url":"https://www.weather.gov/","latitude":41.0669,"longitude":-73.7075,"elevation":379,"start_year":1996,"is_icao":true},{"name":"Wildwood","state":"NJ","code":"kwwd icao","affiliation":"National Weather Service","affiliation_url":"https://www.weather.gov/","latitude":39.02,"longitude":-74.92,"elevation":23,"start_year":1996,"is_icao":true},{"name":"Wilkes-Barre","state":"PA","code":"kavp icao","affiliation":"National Weather Service","affiliation_url":"https://www.weather.gov/","latitude":41.3336,"longitude":-75.7269,"elevation":930,"start_year":1996,"is_icao":true},{"name":"Willard (Muck Crops ARS)","state":"OH","code":"muck oardc","affiliation":"The Ohio State University CFAES Weather System","affiliation_url":"https://www.oardc.ohio-state.edu/weather1/","latitude":41.0049,"longitude":-82.7307,"elevation":940,"start_year":2009,"is_icao":false},{"name":"Williamsburg (20m Tower)","state":"MI","code":"wmt miwx","affiliation":"Michigan State University","affiliation_url":"","latitude":44.8153,"longitude":-85.4445,"elevation":699,"start_year":2017,"is_icao":false},{"name":"Williamson (Mason)","state":"NY","code":"2wi newa","affiliation":"NEWA in New York","affiliation_url":"","latitude":43.2221,"longitude":-77.2316,"elevation":427,"start_year":1997,"is_icao":false},{"name":"Williamson (Orbaker)","state":"NY","code":"wor newa","affiliation":"NEWA in New York","affiliation_url":"","latitude":43.2821,"longitude":-77.217,"elevation":270,"start_year":2016,"is_icao":false},{"name":"Williamsport","state":"PA","code":"kipt icao","affiliation":"National Weather Service","affiliation_url":"https://www.weather.gov/","latitude":41.2433,"longitude":-76.9217,"elevation":520,"start_year":1996,"is_icao":true},{"name":"Willsboro","state":"NY","code":"wlb newa","affiliation":"Cornell University Agricultural Experiment Station","affiliation_url":"https://cuaes.cals.cornell.edu/","latitude":44.38,"longitude":-73.38,"elevation":180,"start_year":1990,"is_icao":false},{"name":"Wilmington","state":"DE","code":"kilg icao","affiliation":"National Weather Service","affiliation_url":"https://www.weather.gov/","latitude":39.67,"longitude":-75.6,"elevation":79,"start_year":1996,"is_icao":true},{"name":"Wilmington","state":"NC","code":"kilm icao","affiliation":"National Weather Service","affiliation_url":"https://www.weather.gov/","latitude":34.2675,"longitude":-77.8997,"elevation":33,"start_year":1996,"is_icao":true},{"name":"Wilmington (NSWMC)","state":"DE","code":"DCHI deos","affiliation":"","affiliation_url":"","latitude":39.7328,"longitude":-75.5183,"elevation":25,"start_year":2004,"is_icao":false},{"name":"Wilmington (Prices Corner)","state":"DE","code":"DPRC deos","affiliation":"","affiliation_url":"","latitude":39.7381,"longitude":-75.6283,"elevation":128,"start_year":2010,"is_icao":false},{"name":"Wilmington (Talley)","state":"DE","code":"DTLY deos","affiliation":"","affiliation_url":"","latitude":39.7753,"longitude":-75.5278,"elevation":240,"start_year":2010,"is_icao":false},{"name":"Winchester (VT AHS AREC)","state":"VA","code":"va_win newa","affiliation":"Virginia Polytechnic Institute and State University","affiliation_url":"http://grapepathology.org","latitude":39.1129,"longitude":-78.284,"elevation":925,"start_year":2016,"is_icao":false},{"name":"Winchester (VT AREC GrapePath)","state":"VA","code":"va_winc nwon","affiliation":"Virginia Polytechnic Institute and State University","affiliation_url":"http://grapepathology.org","latitude":39.1098,"longitude":-78.2808,"elevation":916,"start_year":2020,"is_icao":false},{"name":"Winnebago","state":"IL","code":"il_win newa","affiliation":"NEWA in Illinois","affiliation_url":"","latitude":42.3615,"longitude":-89.1999,"elevation":778,"start_year":2019,"is_icao":false},{"name":"Winston-Salem","state":"NC","code":"kint icao","affiliation":"National Weather Service","affiliation_url":"https://www.weather.gov/","latitude":36.1336,"longitude":-80.2222,"elevation":970,"start_year":1996,"is_icao":true},{"name":"Wisconsin Rapids","state":"WI","code":"kisw icao","affiliation":"National Weather Service","affiliation_url":"https://www.weather.gov/","latitude":44.3592,"longitude":-89.8369,"elevation":1019,"start_year":1996,"is_icao":true},{"name":"Wittenberg","state":"WI","code":"wi_wit newa","affiliation":"Wilson Creek Orchards","affiliation_url":"https://sites.google.com/view/wilsoncreekorchard","latitude":44.8412,"longitude":-89.0993,"elevation":1145,"start_year":2018,"is_icao":false},{"name":"Woodbine","state":"MD","code":"md_wdb newa","affiliation":"NEWA in Maryland","affiliation_url":"","latitude":39.3153,"longitude":-77.104,"elevation":628,"start_year":2015,"is_icao":false},{"name":"Woodbine","state":"NJ","code":"296 njwx","affiliation":"Rutgers New Jersey Weather Network","affiliation_url":"https://www.njweather.org/","latitude":39.2202,"longitude":-74.7959,"elevation":10,"start_year":2010,"is_icao":false},{"name":"Woodstock","state":"CT","code":"ct_woo newa","affiliation":"NEWA in Connecticut","affiliation_url":"https://www.extension.uconn.edu","latitude":41.9308,"longitude":-71.9853,"elevation":201,"start_year":2014,"is_icao":false},{"name":"Woodstock","state":"IL","code":"il_woo newa","affiliation":"NEWA in Illinois","affiliation_url":"","latitude":42.2594,"longitude":-88.4854,"elevation":876,"start_year":2016,"is_icao":false},{"name":"Wooster","state":"OH","code":"woos oardc","affiliation":"The Ohio State University CFAES Weather System","affiliation_url":"https://www.oardc.ohio-state.edu/weather1/","latitude":40.7787,"longitude":-81.9308,"elevation":1020,"start_year":2009,"is_icao":false},{"name":"Wooster (Hort2)","state":"OH","code":"oh_woh newa","affiliation":"The Ohio State University","affiliation_url":"","latitude":40.7381,"longitude":-81.9047,"elevation":994,"start_year":2021,"is_icao":false},{"name":"Worcester","state":"MA","code":"korh icao","affiliation":"National Weather Service","affiliation_url":"https://www.weather.gov/","latitude":42.2672,"longitude":-71.8761,"elevation":986,"start_year":1996,"is_icao":true},{"name":"Worthington (Ocheda)","state":"MN","code":"mn_och newa","affiliation":"Minnesota Apple Growers Association","affiliation_url":"","latitude":43.5621,"longitude":-95.5733,"elevation":1594,"start_year":2015,"is_icao":false},{"name":"York Springs (Lerew)","state":"PA","code":"pa_ysp newa","affiliation":"State Horticultural Association of Pennsylvania","affiliation_url":"","latitude":40.039,"longitude":-77.1364,"elevation":740,"start_year":2013,"is_icao":false},{"name":"Yorktown","state":"NY","code":"yor newa","affiliation":"NEWA in New York","affiliation_url":"","latitude":41.276,"longitude":-73.8276,"elevation":580,"start_year":2019,"is_icao":false},{"name":"Youngstown","state":"OH","code":"kyng icao","affiliation":"National Weather Service","affiliation_url":"https://www.weather.gov/","latitude":41.2547,"longitude":-80.6736,"elevation":1199,"start_year":1996,"is_icao":true},{"name":"Zanesville","state":"OH","code":"kzzv icao","affiliation":"National Weather Service","affiliation_url":"https://www.weather.gov/","latitude":39.9444,"longitude":-81.8922,"elevation":880,"start_year":1996,"is_icao":true}]
